,base,clouds.all,cod,coord.lat,coord.lon,dt,id,main.grnd_level,main.humidity,main.pressure,main.sea_level,main.temp,main.temp_max,main.temp_min,name,rain.1h,rain.3h,sys.country,sys.id,sys.message,sys.sunrise,sys.sunset,sys.type,visibility,weather,wind.deg,wind.gust,wind.speed
0,stations,80,200,-23.12,-134.97,1537731553,4030556,1021.81,100,1021.81,1021.94,66.14,66.14,66.14,Rikitea,,2.5775,PF,,0.0035,1537714045,1537757798,,,"[{'id': 500, 'main': 'Rain', 'description': 'light rain', 'icon': '10d'}]",69.0035,,12.88
1,stations,44,200,46.54,138.33,1537731554,2015852,1017.19,100,1017.19,1027.17,53.27,53.27,53.27,Svetlaya,,,RU,,0.0031,1537648509,1537692112,,,"[{'id': 802, 'main': 'Clouds', 'description': 'scattered clouds', 'icon': '03n'}]",11.5035,,8.41
2,stations,20,200,39.52,-104.76,1537729080,5434006,,3,1018.0,,83.71,86.0,80.6,Parker,,,US,546.0,0.0066,1537706907,1537750380,1.0,16093.0,"[{'id': 801, 'main': 'Clouds', 'description': 'few clouds', 'icon': '02d'}]",156.504,,3.15
3,stations,0,200,-15.94,-5.72,1537731554,3370903,1031.3,99,1031.3,1031.35,68.12,68.12,68.12,Jamestown,,,SH,,0.0032,1537683070,1537726742,,,"[{'id': 800, 'main': 'Clear', 'description': 'clear sky', 'icon': '01n'}]",116.004,,15.68
4,stations,0,200,-4.49,-38.6,1537731555,3393766,1015.08,67,1015.08,1024.82,79.37,79.37,79.37,Ocara,,,BR,,0.0036,1537690985,1537734595,,,"[{'id': 800, 'main': 'Clear', 'description': 'clear sky', 'icon': '01d'}]",77.5035,,11.54
5,stations,20,200,38.52,-28.7,1537729200,3372707,,78,1028.0,,77.0,77.0,77.0,Ribeira Grande,,,PT,5950.0,0.0033,1537688642,1537732147,1.0,10000.0,"[{'id': 801, 'main': 'Clouds', 'description': 'few clouds', 'icon': '02d'}]",140.0,,6.93
6,stations,20,200,72.79,-56.15,1537731555,3418910,1010.14,100,1010.14,1013.27,30.32,30.32,30.32,Upernavik,,,GL,,0.0035,1537695073,1537738774,,,"[{'id': 801, 'main': 'Clouds', 'description': 'few clouds', 'icon': '02d'}]",1.00354,,18.03
7,stations,92,200,-46.43,-67.52,1537731555,3863379,999.12,79,999.12,1020.81,47.33,47.33,47.33,Mar del Plata,,0.4725,AR,,0.0045,1537697728,1537741777,,,"[{'id': 500, 'main': 'Rain', 'description': 'light rain', 'icon': '10d'}]",42.5035,,3.83
8,stations,40,200,-0.74,-90.35,1537729200,3652764,,61,1010.0,,77.0,77.0,77.0,Puerto Ayora,,,EC,4355.0,0.0039,1537703409,1537747002,1.0,10000.0,"[{'id': 802, 'main': 'Clouds', 'description': 'scattered clouds', 'icon': '03d'}]",120.0,,19.46
9,stations,1,200,39.51,-90.4,1537728900,4252975,,36,1019.0,,77.29,78.98,75.74,Barrow,,,US,978.0,0.0066,1537703459,1537746937,1.0,16093.0,"[{'id': 800, 'main': 'Clear', 'description': 'clear sky', 'icon': '01d'}]",110.0,,5.82
10,stations,0,200,-28.24,-48.67,1537729200,3461370,,65,1011.0,,78.8,78.8,78.8,Imbituba,,,BR,4493.0,0.0034,1537693327,1537737108,1.0,10000.0,"[{'id': 800, 'main': 'Clear', 'description': 'clear sky', 'icon': '01d'}]",350.0,,6.93
11,stations,88,200,62.86,42.71,1537731531,577240,1006.82,94,1006.82,1013.84,48.32,48.32,48.32,Bereznik,,,RU,,0.0027,1537671403,1537715062,,,"[{'id': 804, 'main': 'Clouds', 'description': 'overcast clouds', 'icon': '04n'}]",223.004,,6.96
12,stations,20,200,-21.36,55.77,1537729200,935215,,73,1022.0,,71.73,73.4,69.8,Saint-Philippe,,,RE,6792.0,0.0041,1537668305,1537712003,1.0,10000.0,"[{'id': 801, 'main': 'Clouds', 'description': 'few clouds', 'icon': '02n'}]",70.0,,5.82
13,stations,36,200,-35.02,117.88,1537731557,2077963,1018.89,98,1018.89,1031.91,52.55,52.55,52.55,Albany,,,AU,,0.0195,1537653361,1537697157,,,"[{'id': 802, 'main': 'Clouds', 'description': 'scattered clouds', 'icon': '03n'}]",132.504,,2.93
14,stations,20,200,37.61,-122.49,1537729860,5380420,,56,1013.0,,71.01,82.04,59.0,Pacifica,,,US,478.0,0.0184,1537711165,1537754633,1.0,16093.0,"[{'id': 721, 'main': 'Haze', 'description': 'haze', 'icon': '50d'}]",310.0,,16.11
15,stations,40,200,28.38,36.58,1537729200,101628,,9,1015.0,,93.2,93.2,93.2,Tabuk,,,SA,7006.0,0.0032,1537672972,1537716502,1.0,10000.0,"[{'id': 802, 'main': 'Clouds', 'description': 'scattered clouds', 'icon': '03n'}]",210.0,,6.93
16,stations,1,200,40.6,-124.16,1537728900,5563839,,55,1017.0,,60.82,64.4,57.92,Fortuna,,,US,386.0,0.0489,1537711566,1537755029,1.0,16093.0,"[{'id': 800, 'main': 'Clear', 'description': 'clear sky', 'icon': '01d'}]",330.0,8.7,10.29
17,stations,0,200,17.01,54.1,1537728600,286621,,78,1012.0,,77.0,77.0,77.0,Salalah,,,OM,7115.0,0.0032,1537668766,1537712311,1.0,10000.0,"[{'id': 800, 'main': 'Clear', 'description': 'clear sky', 'icon': '01n'}]",20.0,,3.36
18,stations,0,200,23.6,58.55,1537728600,287286,,74,1007.0,,86.0,86.0,86.0,Muscat,,,OM,7113.0,0.0039,1537667699,1537711237,1.0,8000.0,"[{'id': 800, 'main': 'Clear', 'description': 'clear sky', 'icon': '01n'}]",250.0,,4.7
19,stations,76,200,-46.6,168.33,1537731559,2206939,1017.35,100,1017.35,1018.5,46.61,46.61,46.61,Bluff,,,NZ,,0.0034,1537641201,1537685124,,,"[{'id': 803, 'main': 'Clouds', 'description': 'broken clouds', 'icon': '04n'}]",63.5035,,9.75
20,stations,0,200,37.14,-8.45,1537729200,2267254,,57,1018.0,,78.8,78.8,78.8,Lagoa,,,PT,5948.0,0.0035,1537683780,1537727293,1.0,10000.0,"[{'id': 800, 'main': 'Clear', 'description': 'clear sky', 'icon': '01n'}]",260.0,,6.93
21,stations,40,200,19.71,-155.08,1537728780,5855927,,67,1013.0,,80.96,80.96,80.96,Hilo,,,US,818.0,0.0036,1537718977,1537762480,1.0,16093.0,"[{'id': 802, 'main': 'Clouds', 'description': 'scattered clouds', 'icon': '03d'}]",140.0,,3.36
22,stations,76,200,-46.13,167.69,1537731560,2180815,992.39,100,992.39,1018.17,41.3,41.3,41.3,Tuatapere,,0.425,NZ,,0.0038,1537641358,1537685274,,,"[{'id': 500, 'main': 'Rain', 'description': 'light rain', 'icon': '10n'}]",260.504,,4.16
23,stations,75,200,-54.81,-68.31,1537729200,3833367,,64,1007.0,,37.4,37.4,37.4,Ushuaia,,,AR,4754.0,0.0067,1537697820,1537742082,1.0,10000.0,"[{'id': 521, 'main': 'Rain', 'description': 'shower rain', 'icon': '09d'}]",230.0,,18.34
24,stations,88,200,68.75,161.3,1537731368,2126199,1014.03,96,1014.03,1021.98,34.46,34.46,34.46,Cherskiy,,,RU,,0.0036,1537642806,1537686720,,,"[{'id': 804, 'main': 'Clouds', 'description': 'overcast clouds', 'icon': '04n'}]",184.504,,5.17
25,stations,0,200,-34.53,20.04,1537729200,1015776,,81,1021.0,,50.0,50.0,50.0,Bredasdorp,,,ZA,6591.0,0.003,1537676821,1537720648,1.0,,"[{'id': 800, 'main': 'Clear', 'description': 'clear sky', 'icon': '01n'}]",100.0,,4.7
26,stations,0,200,70.37,31.11,1537728600,777019,,71,980.0,,47.48,50.0,44.6,Vardo,,,NO,5337.0,0.0821,1537674107,1537717884,1.0,10000.0,"[{'id': 520, 'main': 'Rain', 'description': 'light intensity shower rain', 'icon': '09n'}]",190.0,,26.4
27,stations,20,200,-20.34,57.76,1537729200,1106677,,78,1024.0,,73.4,73.4,73.4,Bambous Virieux,,,MU,6729.0,0.003,1537667831,1537711522,1.0,10000.0,"[{'id': 801, 'main': 'Clouds', 'description': 'few clouds', 'icon': '02n'}]",110.0,,13.87
28,stations,0,200,77.48,-69.36,1537731562,3831208,987.93,100,987.93,1020.48,18.44,18.44,18.44,Qaanaaq,,,GL,,0.0039,1537698146,1537741978,,,"[{'id': 800, 'main': 'Clear', 'description': 'clear sky', 'icon': '01d'}]",70.0035,,4.38
29,stations,90,200,65.28,-126.83,1537729200,6089245,,56,1005.0,,44.6,44.6,44.6,Norman Wells,,,CA,3547.0,0.0038,1537712157,1537755658,1.0,48279.0,"[{'id': 804, 'main': 'Clouds', 'description': 'overcast clouds', 'icon': '04d'}]",290.0,,9.17
30,stations,80,200,54.89,69.46,1537731562,1520172,1015.57,88,1015.57,1032.0,47.96,47.96,47.96,Mikhaylovka,,,KZ,,0.0041,1537665023,1537708630,,,"[{'id': 803, 'main': 'Clouds', 'description': 'broken clouds', 'icon': '04n'}]",291.004,,6.73
31,stations,0,200,-22.97,-42.02,1537729200,3471451,,61,1013.0,,77.88,78.8,77.0,Arraial do Cabo,,,BR,4469.0,0.0037,1537691754,1537735484,1.0,10000.0,"[{'id': 800, 'main': 'Clear', 'description': 'clear sky', 'icon': '01d'}]",90.0,,18.34
32,stations,76,200,42.33,142.37,1537731563,2128025,1005.36,94,1005.36,1030.21,53.99,53.99,53.99,Shizunai,,,JP,,0.0032,1537647551,1537691138,,,"[{'id': 803, 'main': 'Clouds', 'description': 'broken clouds', 'icon': '04n'}]",131.504,,4.05
33,stations,0,200,-20.74,116.85,1537731563,6620339,1014.6,29,1014.6,1028.02,68.39,68.39,68.39,Karratha,,,AU,,0.0562,1537653658,1537697339,,,"[{'id': 800, 'main': 'Clear', 'description': 'clear sky', 'icon': '01n'}]",197.504,,9.31
34,stations,92,200,-17.91,19.77,1537731564,3353383,901.6,19,901.6,1023.12,81.26,81.26,81.26,Rundu,,,NA,,0.0028,1537676950,1537720631,,,"[{'id': 804, 'main': 'Clouds', 'description': 'overcast clouds', 'icon': '04n'}]",62.5035,,9.98
35,stations,0,200,-33.93,18.42,1537729200,3369157,,82,1018.0,,59.0,59.0,59.0,Cape Town,,,ZA,6529.0,0.0034,1537677213,1537721033,1.0,10000.0,"[{'id': 800, 'main': 'Clear', 'description': 'clear sky', 'icon': '01n'}]",190.0,,16.11
36,stations,40,200,-53.16,-70.91,1537729200,3874787,,48,1008.0,,41.0,41.0,41.0,Punta Arenas,,,CL,4642.0,0.0037,1537698466,1537742680,1.0,10000.0,"[{'id': 802, 'main': 'Clouds', 'description': 'scattered clouds', 'icon': '03d'}]",150.0,,8.05
37,stations,0,200,-33.69,-53.46,1537731564,3443061,1024.16,87,1024.16,1025.63,63.26,63.26,63.26,Chuy,,,UY,,0.0028,1537694449,1537738291,,,"[{'id': 800, 'main': 'Clear', 'description': 'clear sky', 'icon': '01d'}]",114.004,,8.63
38,stations,48,200,-11.81,-37.61,1537731565,3465713,1021.57,83,1021.57,1028.27,77.3,77.3,77.3,Conde,,,BR,,0.0029,1537690731,1537734381,,,"[{'id': 802, 'main': 'Clouds', 'description': 'scattered clouds', 'icon': '03d'}]",119.004,,9.75
39,stations,80,200,5.1,73.07,1537731565,1337606,1024.08,100,1024.08,1024.09,82.88,82.88,82.88,Eydhafushi,,,MV,,0.0034,1537664205,1537707779,,,"[{'id': 803, 'main': 'Clouds', 'description': 'broken clouds', 'icon': '04n'}]",274.004,,11.65
40,stations,24,200,-33.64,115.35,1537731565,2075265,1031.62,100,1031.62,1032.72,57.41,57.41,57.41,Busselton,,,AU,,0.003,1537653973,1537697757,,,"[{'id': 801, 'main': 'Clouds', 'description': 'few clouds', 'icon': '02n'}]",200.504,,11.1
41,stations,90,200,31.46,-100.44,1537728660,5530022,,64,1016.0,,75.92,75.92,75.92,San Angelo,,,US,2712.0,0.0037,1537705870,1537749355,1.0,16093.0,"[{'id': 804, 'main': 'Clouds', 'description': 'overcast clouds', 'icon': '04d'}]",350.0,,9.17
42,stations,75,200,50.7,-127.42,1537729200,6111862,,82,1022.0,,55.4,55.4,55.4,Port Hardy,,,CA,3322.0,0.0055,1537712342,1537755800,1.0,32186.0,"[{'id': 803, 'main': 'Clouds', 'description': 'broken clouds', 'icon': '04d'}]",40.0,,5.82
43,stations,75,200,43.68,43.54,1537729200,579574,,63,1016.0,,65.17,66.2,64.4,Baksan,,,RU,7299.0,0.0066,1537671285,1537714829,1.0,10000.0,"[{'id': 520, 'main': 'Rain', 'description': 'light intensity shower rain', 'icon': '09n'}]",300.0,,6.71
44,stations,0,200,-35.02,-58.42,1537729200,3428067,,40,1009.0,,71.56,73.4,69.8,San Vicente,,,AR,4699.0,0.0037,1537695630,1537739491,1.0,10000.0,"[{'id': 800, 'main': 'Clear', 'description': 'clear sky', 'icon': '01d'}]",150.0,,8.05
45,stations,12,200,-33.35,149.98,1537731567,2152668,945.78,89,945.78,1043.67,40.67,40.67,40.67,Portland,,,AU,,0.0036,1537645671,1537689440,,,"[{'id': 801, 'main': 'Clouds', 'description': 'few clouds', 'icon': '02n'}]",132.004,,4.16
46,stations,0,200,44.04,-64.71,1537731567,6057856,1033.08,89,1033.08,1035.24,63.08,63.08,63.08,Liverpool,,,CA,,0.0045,1537697286,1537740775,,,"[{'id': 800, 'main': 'Clear', 'description': 'clear sky', 'icon': '01d'}]",245.504,,10.65
47,stations,92,200,73.51,80.55,1537731567,1507390,1019.22,95,1019.22,1019.63,40.04,40.04,40.04,Dikson,,0.1075,RU,,0.0043,1537662140,1537706098,,,"[{'id': 500, 'main': 'Rain', 'description': 'light rain', 'icon': '10n'}]",24.0035,,4.83
48,stations,0,200,-9.8,-139.03,1537731567,4020109,1024.97,100,1024.97,1025.06,78.38,78.38,78.38,Atuona,,,PF,,0.0031,1537715066,1537758714,,,"[{'id': 800, 'main': 'Clear', 'description': 'clear sky', 'icon': '01d'}]",86.0035,,9.19
49,stations,90,200,23.99,-104.67,1537728300,4011743,,56,1023.0,,71.6,71.6,71.6,Constitucion,,,MX,3983.0,0.0046,1537706881,1537750381,1.0,19312.0,"[{'id': 804, 'main': 'Clouds', 'description': 'overcast clouds', 'icon': '04d'}]",340.0,,5.82
50,stations,92,200,64.9,45.76,1537731568,535839,1002.93,98,1002.93,1011.77,50.12,50.12,50.12,Leshukonskoye,,3.1025,RU,,0.0033,1537670652,1537714341,,,"[{'id': 501, 'main': 'Rain', 'description': 'moderate rain', 'icon': '10n'}]",224.004,,5.61
51,stations,76,200,-33.59,26.89,1537731366,964432,1026.59,97,1026.59,1035.56,64.7,64.7,64.7,Port Alfred,,,ZA,,0.0032,1537675184,1537718997,,,"[{'id': 803, 'main': 'Clouds', 'description': 'broken clouds', 'icon': '04n'}]",260.004,,5.95
52,stations,0,200,-29.95,-71.34,1537729200,3893629,,63,1014.0,,64.4,64.4,64.4,Coquimbo,,,CL,4666.0,0.0036,1537698755,1537742560,1.0,10000.0,"[{'id': 800, 'main': 'Clear', 'description': 'clear sky', 'icon': '01d'}]",290.0,,17.22
53,stations,0,200,41.72,-8.86,1537729200,2742765,,77,1022.0,,71.6,73.4,69.8,Areosa,,,PT,5959.0,0.0162,1537683874,1537727389,1.0,10000.0,"[{'id': 800, 'main': 'Clear', 'description': 'clear sky', 'icon': '01n'}]",340.0,,5.82
54,stations,20,200,17.88,-76.41,1537729200,3489440,,62,1009.0,,89.6,89.6,89.6,Morant Bay,,,JM,4111.0,0.0051,1537700092,1537743614,1.0,10000.0,"[{'id': 801, 'main': 'Clouds', 'description': 'few clouds', 'icon': '02d'}]",140.0,,23.04
55,stations,8,200,67.68,53.15,1537731570,866062,1007.63,85,1007.63,1010.28,56.51,56.51,56.51,Iskateley,,,RU,,0.005,1537668843,1537712589,,,"[{'id': 800, 'main': 'Clear', 'description': 'clear sky', 'icon': '02n'}]",175.504,,19.48
56,stations,20,200,59.7,30.79,1537729200,546105,,87,999.0,,46.4,46.4,46.4,Nikolskoye,,,RU,7267.0,0.004,1537674292,1537717905,1.0,10000.0,"[{'id': 801, 'main': 'Clouds', 'description': 'few clouds', 'icon': '02n'}]",190.0,,4.47
57,stations,0,200,64.25,-15.21,1537731570,2630299,1021.24,100,1021.24,1032.52,42.74,42.74,42.74,Hofn,,,IS,,0.0042,1537685320,1537728934,,,"[{'id': 800, 'main': 'Clear', 'description': 'clear sky', 'icon': '01n'}]",237.004,,12.33
58,stations,0,200,-22.46,-68.93,1537729200,3897347,,3,1021.0,,75.2,75.2,75.2,Calama,,,CL,4640.0,0.0043,1537698209,1537741942,1.0,10000.0,"[{'id': 800, 'main': 'Clear', 'description': 'clear sky', 'icon': '01d'}]",280.0,,24.16
59,stations,12,200,-33.86,121.89,1537731571,2071860,1020.03,93,1020.03,1031.95,51.92,51.92,51.92,Esperance,,,AU,,0.005,1537652404,1537696188,,,"[{'id': 801, 'main': 'Clouds', 'description': 'few clouds', 'icon': '02n'}]",287.504,,3.15
60,stations,92,200,-15.51,167.18,1537731571,2136150,1024.73,100,1024.73,1027.01,76.76,76.76,76.76,Luganville,,,VU,,0.0057,1537641598,1537685242,,,"[{'id': 804, 'main': 'Clouds', 'description': 'overcast clouds', 'icon': '04n'}]",122.504,,16.02
61,stations,36,200,-37.83,140.78,1537731571,2156643,1039.65,81,1039.65,1048.49,42.38,42.38,42.38,Mount Gambier,,,AU,,0.0034,1537647857,1537691675,,,"[{'id': 802, 'main': 'Clouds', 'description': 'scattered clouds', 'icon': '03n'}]",153.004,,3.15
62,stations,100,200,-46.28,169.85,1537731572,2208248,1001.63,100,1001.63,1018.9,41.39,41.39,41.39,Kaitangata,,1.2425,NZ,,0.0033,1537640839,1537684756,,,"[{'id': 500, 'main': 'Rain', 'description': 'light rain', 'icon': '10n'}]",63.5035,,9.42
63,stations,32,200,-30.17,-50.22,1537731572,3466165,1013.95,84,1013.95,1023.89,75.14,75.14,75.14,Cidreira,,,BR,,0.0037,1537693690,1537737491,,,"[{'id': 802, 'main': 'Clouds', 'description': 'scattered clouds', 'icon': '03d'}]",65.5035,,6.73
64,stations,75,200,-42.88,147.33,1537729200,2163355,,63,1032.0,,42.8,42.8,42.8,Hobart,,,AU,8195.0,0.0038,1537646259,1537690137,1.0,10000.0,"[{'id': 803, 'main': 'Clouds', 'description': 'broken clouds', 'icon': '04n'}]",270.0,,5.82
65,stations,76,200,3.07,172.79,1537731572,2110227,1023.68,100,1023.68,1023.73,84.05,84.05,84.05,Butaritari,,,KI,,0.0035,1537640275,1537683857,,,"[{'id': 803, 'main': 'Clouds', 'description': 'broken clouds', 'icon': '04n'}]",157.004,,9.42
66,stations,24,200,65.58,-170.99,1537731573,4031637,1014.68,96,1014.68,1018.82,43.55,43.55,43.55,Lavrentiya,,,RU,,0.0034,1537722776,1537766229,,,"[{'id': 801, 'main': 'Clouds', 'description': 'few clouds', 'icon': '02d'}]",15.5035,,20.27
67,stations,8,200,-12.06,-77.04,1537731574,3936456,875.26,59,875.26,1022.75,68.3,68.3,68.3,Lima,,,PE,,0.0032,1537700189,1537743845,,,"[{'id': 800, 'main': 'Clear', 'description': 'clear sky', 'icon': '02d'}]",199.004,,3.15
68,stations,20,200,55.74,-97.86,1537729200,6165406,,30,1025.0,,42.8,42.8,42.8,Thompson,,,CA,3406.0,0.0033,1537705230,1537748716,1.0,24140.0,"[{'id': 801, 'main': 'Clouds', 'description': 'few clouds', 'icon': '02d'}]",200.0,,9.17
69,stations,48,200,60.4,-1.35,1537730400,2654970,,60,1021.0,,44.82,46.4,42.8,Brae,,,GB,5126.0,0.0038,1537682014,1537725605,1.0,10000.0,"[{'id': 802, 'main': 'Clouds', 'description': 'scattered clouds', 'icon': '03n'}]",310.0,,10.29
70,stations,0,200,53.97,121.97,1537731575,2012938,953.0,83,953.0,1035.56,33.38,33.38,33.38,Yerofey Pavlovich,,,RU,,0.0111,1537652409,1537696048,,,"[{'id': 800, 'main': 'Clear', 'description': 'clear sky', 'icon': '01n'}]",280.504,,2.37
71,stations,92,200,71.98,102.47,1537731575,2022572,1011.68,87,1011.68,1016.23,39.86,39.86,39.86,Khatanga,,0.26,RU,,0.0052,1537656899,1537700834,,,"[{'id': 500, 'main': 'Rain', 'description': 'light rain', 'icon': '10n'}]",115.004,,2.93
72,stations,76,200,71.97,114.09,1537731575,2017155,1005.36,91,1005.36,1016.88,35.0,35.0,35.0,Saskylakh,,,RU,,0.0091,1537654102,1537698055,,,"[{'id': 803, 'main': 'Clouds', 'description': 'broken clouds', 'icon': '04n'}]",233.004,,4.61
73,stations,75,200,30.04,-94.42,1537731060,4732862,,67,1011.0,,85.26,87.08,82.58,Nome,,,US,2560.0,0.0045,1537704424,1537747913,1.0,16093.0,"[{'id': 803, 'main': 'Clouds', 'description': 'broken clouds', 'icon': '04d'}]",170.0,,8.05
74,stations,68,200,46.43,-74.98,1537731494,6050541,1001.87,67,1001.87,1040.83,47.06,47.06,47.06,Laurentides,,0.1075,CA,,0.0042,1537699750,1537743236,,,"[{'id': 500, 'main': 'Rain', 'description': 'light rain', 'icon': '10d'}]",344.504,,5.95
75,stations,20,200,-4.26,-55.99,1537729200,3397967,,44,1007.0,,96.8,96.8,96.8,Itaituba,,,BR,4510.0,0.0032,1537695158,1537738768,1.0,10000.0,"[{'id': 801, 'main': 'Clouds', 'description': 'few clouds', 'icon': '02d'}]",120.0,,10.29
76,stations,20,200,37.72,-25.43,1537729200,3372472,,78,1028.0,,73.4,73.4,73.4,Vila Franca do Campo,,,PT,5957.0,0.0029,1537687857,1537731363,1.0,10000.0,"[{'id': 801, 'main': 'Clouds', 'description': 'few clouds', 'icon': '02d'}]",120.0,,8.05
77,stations,20,200,-20.41,57.7,1537729200,934322,,78,1024.0,,73.4,73.4,73.4,Mahebourg,,,MU,6729.0,0.0033,1537667845,1537711536,1.0,10000.0,"[{'id': 801, 'main': 'Clouds', 'description': 'few clouds', 'icon': '02n'}]",110.0,,13.87
78,stations,40,200,-21.2,-175.2,1537729200,4032243,,83,1015.0,,71.6,71.6,71.6,Vaini,,,TO,8323.0,0.0082,1537723702,1537767445,1.0,10000.0,"[{'id': 802, 'main': 'Clouds', 'description': 'scattered clouds', 'icon': '03d'}]",160.0,,10.29
79,stations,0,200,17.54,44.22,1537729200,103630,,19,1018.0,,80.6,80.6,80.6,Najran,,,SA,6998.0,0.0036,1537671137,1537714680,1.0,10000.0,"[{'id': 800, 'main': 'Clear', 'description': 'clear sky', 'icon': '01n'}]",7.00354,,2.71
80,stations,20,200,-6.13,106.38,1537729200,1639362,,74,1012.0,,78.8,78.8,78.8,Kresek,,,ID,8043.0,0.0033,1537656199,1537699809,1.0,5000.0,"[{'id': 721, 'main': 'Haze', 'description': 'haze', 'icon': '50n'}]",190.0,,4.7
81,stations,88,200,-42.48,-73.76,1537731578,3896218,1017.52,87,1017.52,1032.36,46.07,46.07,46.07,Castro,,0.17,CL,,0.0033,1537699257,1537743236,,,"[{'id': 500, 'main': 'Rain', 'description': 'light rain', 'icon': '10d'}]",297.504,,8.86
82,stations,0,200,-24.87,113.63,1537731579,2074865,1030.89,98,1030.89,1032.2,64.88,64.88,64.88,Carnarvon,,,AU,,0.0039,1537654418,1537698128,,,"[{'id': 800, 'main': 'Clear', 'description': 'clear sky', 'icon': '01n'}]",161.004,,14.79
83,stations,75,200,42.77,-9.06,1537729200,3115824,,93,1027.0,,66.2,66.2,66.2,Muros,,,ES,5500.0,0.0033,1537683921,1537727437,1.0,10000.0,"[{'id': 803, 'main': 'Clouds', 'description': 'broken clouds', 'icon': '04n'}]",40.0,,8.05
84,stations,0,200,64.42,-173.23,1537731579,4031574,1013.54,100,1013.54,1019.71,42.56,42.56,42.56,Provideniya,,,RU,,0.0042,1537723320,1537766765,,,"[{'id': 800, 'main': 'Clear', 'description': 'clear sky', 'icon': '01d'}]",20.0035,,13.11
85,stations,0,200,-34.0,24.73,1537731368,986717,1026.11,98,1026.11,1035.85,54.35,54.35,54.35,Kruisfontein,,,ZA,,0.0034,1537675699,1537719518,,,"[{'id': 800, 'main': 'Clear', 'description': 'clear sky', 'icon': '01n'}]",315.504,,3.71
86,stations,8,200,42.28,125.73,1537731580,2036033,960.45,90,960.45,1032.4,34.1,34.1,34.1,Liuhe,,,CN,,0.0036,1537651548,1537695127,,,"[{'id': 800, 'main': 'Clear', 'description': 'clear sky', 'icon': '02n'}]",282.504,,2.82
87,stations,20,200,19.22,-104.7,1537728060,3985168,,63,1009.0,,91.4,91.4,91.4,San Patricio,,,MX,3993.0,0.0035,1537706884,1537750397,1.0,16093.0,"[{'id': 801, 'main': 'Clouds', 'description': 'few clouds', 'icon': '02d'}]",250.0,,13.87
88,stations,75,200,60.79,-161.76,1537728780,5880568,,89,1001.0,,48.92,48.92,48.92,Bethel,,,US,28.0,0.0032,1537720575,1537764020,1.0,16093.0,"[{'id': 803, 'main': 'Clouds', 'description': 'broken clouds', 'icon': '04d'}]",210.0,11.8,17.22
89,stations,12,200,-11.68,-61.19,1537731581,3924908,989.23,43,989.23,1018.46,92.96,92.96,92.96,Pimenta Bueno,,,BR,,0.0028,1537696388,1537740040,,,"[{'id': 801, 'main': 'Clouds', 'description': 'few clouds', 'icon': '02d'}]",289.504,,2.15
90,stations,20,200,-21.21,-159.78,1537729200,4035715,,64,1017.0,,75.2,75.2,75.2,Avarua,,,CK,8340.0,0.0037,1537720004,1537763744,1.0,10000.0,"[{'id': 801, 'main': 'Clouds', 'description': 'few clouds', 'icon': '02d'}]",80.0,,12.75
91,stations,20,200,-19.98,57.61,1537729200,934649,,78,1024.0,,73.4,73.4,73.4,Cap Malheureux,,,MU,6729.0,0.0037,1537667868,1537711556,1.0,10000.0,"[{'id': 801, 'main': 'Clouds', 'description': 'few clouds', 'icon': '02n'}]",110.0,,13.87
92,stations,88,200,63.05,179.32,1537731582,2126710,1015.33,99,1015.33,1023.24,45.35,45.35,45.35,Beringovskiy,,,RU,,0.0032,1537638554,1537682354,,,"[{'id': 804, 'main': 'Clouds', 'description': 'overcast clouds', 'icon': '04d'}]",12.5035,,9.64
93,stations,0,200,40.56,8.32,1537728600,3183284,,88,1018.0,,71.6,71.6,71.6,Alghero,,,IT,5777.0,0.0036,1537679749,1537723271,1.0,10000.0,"[{'id': 800, 'main': 'Clear', 'description': 'clear sky', 'icon': '01n'}]",,,1.12
94,stations,12,200,19.34,83.79,1537731583,1270818,975.04,95,975.04,1024.33,67.94,67.94,67.94,Gudari,,,IN,,0.0037,1537661640,1537705187,,,"[{'id': 801, 'main': 'Clouds', 'description': 'few clouds', 'icon': '02n'}]",187.004,,2.15
95,stations,0,200,-6.05,26.92,1537731583,215668,952.75,40,952.75,1020.16,78.29,78.29,78.29,Kabalo,,,CD,,0.0034,1537675263,1537718877,,,"[{'id': 800, 'main': 'Clear', 'description': 'clear sky', 'icon': '01n'}]",75.0035,,9.75
96,stations,48,200,-39.89,176.62,1537731583,2185329,959.89,73,959.89,1020.36,50.48,50.48,50.48,Otane,,,NZ,,0.0034,1537639254,1537683081,,,"[{'id': 802, 'main': 'Clouds', 'description': 'scattered clouds', 'icon': '03n'}]",313.004,,3.71
97,stations,44,200,-19.06,-169.92,1537729200,4036284,,83,1014.0,,77.0,77.0,77.0,Alofi,,,NU,8341.0,0.0036,1537722444,1537766167,1.0,,"[{'id': 802, 'main': 'Clouds', 'description': 'scattered clouds', 'icon': '03d'}]",30.0,,5.82
98,stations,56,200,66.94,-53.67,1537731584,3419842,969.45,66,969.45,1005.17,36.26,36.26,36.26,Sisimiut,,,GL,,0.0037,1537694548,1537738150,,,"[{'id': 803, 'main': 'Clouds', 'description': 'broken clouds', 'icon': '04d'}]",10.5035,,2.15
99,stations,75,200,-22.52,-63.8,1537729200,3834601,,37,1001.0,,102.2,102.2,102.2,Tartagal,,,AR,4444.0,0.0049,1537696979,1537740711,1.0,10000.0,"[{'id': 803, 'main': 'Clouds', 'description': 'broken clouds', 'icon': '04d'}]",60.0,,9.17
100,stations,36,200,69.22,-51.1,1537728600,3423146,,36,990.0,,44.6,44.6,44.6,Ilulissat,,,GL,4805.0,0.0077,1537693907,1537737544,1.0,,"[{'id': 802, 'main': 'Clouds', 'description': 'scattered clouds', 'icon': '03d'}]",120.0,,17.22
101,stations,40,200,19.02,-102.1,1537728000,3994674,,69,1020.0,,75.2,75.2,75.2,Nueva Italia de Ruiz,,,MX,4027.0,0.0043,1537706259,1537749774,1.0,24140.0,"[{'id': 802, 'main': 'Clouds', 'description': 'scattered clouds', 'icon': '03d'}]",190.0,,6.93
102,stations,0,200,-34.42,19.24,1537731367,3366880,993.53,94,993.53,1033.98,43.01,43.01,43.01,Hermanus,,,ZA,,0.0035,1537677014,1537720839,,,"[{'id': 800, 'main': 'Clear', 'description': 'clear sky', 'icon': '01n'}]",113.504,,3.94
103,stations,0,200,26.33,43.97,1537729200,107304,,27,1013.0,,89.6,89.6,89.6,Buraydah,,,SA,6984.0,0.0032,1537671199,1537714731,1.0,10000.0,"[{'id': 800, 'main': 'Clear', 'description': 'clear sky', 'icon': '01n'}]",19.5035,,5.28
104,stations,75,200,22.08,-159.32,1537728960,5848280,,84,1013.0,,81.12,82.94,78.98,Kapaa,,,US,833.0,0.0031,1537719998,1537763492,1.0,16093.0,"[{'id': 803, 'main': 'Clouds', 'description': 'broken clouds', 'icon': '04d'}]",140.0,,8.05
105,stations,92,200,70.62,147.9,1537731586,2126123,1020.68,97,1020.68,1022.75,32.48,32.48,32.48,Chokurdakh,,,RU,,0.0032,1537645994,1537689950,,,"[{'id': 804, 'main': 'Clouds', 'description': 'overcast clouds', 'icon': '04n'}]",251.504,,3.6
106,stations,0,200,45.32,55.19,1537731586,610298,1030.16,55,1030.16,1032.72,55.79,55.79,55.79,Beyneu,,,KZ,,0.0034,1537668484,1537712037,,,"[{'id': 800, 'main': 'Clear', 'description': 'clear sky', 'icon': '01n'}]",131.004,,9.19
107,stations,92,200,63.46,48.9,1537731586,544084,993.53,79,993.53,1012.59,61.01,61.01,61.01,Koslan,,0.29,RU,,0.003,1537669910,1537713582,,,"[{'id': 500, 'main': 'Rain', 'description': 'light rain', 'icon': '10n'}]",197.504,,9.42
108,stations,75,200,28.66,-17.92,1537729200,2514651,,83,1019.0,,73.4,73.4,73.4,Los Llanos de Aridane,,,ES,5515.0,0.0044,1537686057,1537729570,1.0,10000.0,"[{'id': 803, 'main': 'Clouds', 'description': 'broken clouds', 'icon': '04d'}]",30.0,,16.11
109,stations,56,200,-22.12,14.28,1537731587,3356832,1012.9,99,1012.9,1026.52,55.16,55.16,55.16,Henties Bay,,,NA,,0.0029,1537678254,1537721966,,,"[{'id': 803, 'main': 'Clouds', 'description': 'broken clouds', 'icon': '04n'}]",177.004,,4.5
110,stations,32,200,11.14,123.72,1537731587,1685422,1021.24,100,1021.24,1021.42,81.44,81.44,81.44,Sulangan,,,PH,,0.0043,1537652054,1537695618,,,"[{'id': 802, 'main': 'Clouds', 'description': 'scattered clouds', 'icon': '03n'}]",292.004,,14.56
111,stations,0,200,-20.01,148.25,1537729200,2174444,,87,1018.0,,59.0,59.0,59.0,Bowen,,,AU,8174.0,0.0047,1537646128,1537689799,1.0,10000.0,"[{'id': 800, 'main': 'Clear', 'description': 'clear sky', 'icon': '01n'}]",210.0,,5.82
112,stations,90,200,53.36,-104.02,1537729560,6088469,,80,1021.0,,32.0,32.0,32.0,Nipawin,,,CA,3923.0,0.0037,1537706716,1537750192,1.0,8047.0,"[{'id': 600, 'main': 'Snow', 'description': 'light snow', 'icon': '13d'}]",100.0,,10.29
113,stations,75,200,-42.78,147.06,1537729200,2155415,,89,1032.0,,42.8,42.8,42.8,New Norfolk,,,AU,8195.0,0.0032,1537646324,1537690201,1.0,10000.0,"[{'id': 803, 'main': 'Clouds', 'description': 'broken clouds', 'icon': '04n'}]",270.0,,5.82
114,stations,75,200,35.78,-78.64,1537730100,4487042,,55,1018.0,,74.82,86.0,63.68,Raleigh,,,US,1826.0,0.004,1537700636,1537744122,1.0,16093.0,"[{'id': 803, 'main': 'Clouds', 'description': 'broken clouds', 'icon': '04d'}]",24.0035,,5.5
115,stations,80,200,-34.48,-54.34,1537731589,3440777,1007.87,61,1007.87,1024.98,63.98,63.98,63.98,Rocha,,,UY,,0.0039,1537694655,1537738508,,,"[{'id': 803, 'main': 'Clouds', 'description': 'broken clouds', 'icon': '04d'}]",99.5035,,7.96
116,stations,0,200,46.77,-56.17,1537731589,3424934,1033.73,93,1033.73,1034.18,55.34,55.34,55.34,Saint-Pierre,,,PM,,0.0035,1537695231,1537738727,,,"[{'id': 800, 'main': 'Clear', 'description': 'clear sky', 'icon': '01d'}]",218.004,,16.02
117,stations,0,200,35.51,27.21,1537728600,260895,,83,1016.0,,73.4,73.4,73.4,Karpathos,,,GR,5682.0,0.0029,1537675218,1537718744,1.0,,"[{'id': 800, 'main': 'Clear', 'description': 'clear sky', 'icon': '01n'}]",290.0,,13.87
118,stations,1,200,61.6,-149.11,1537728960,5871146,,79,1009.0,,51.93,55.04,48.92,Palmer,,,US,131.0,0.004,1537717531,1537760991,1.0,16093.0,"[{'id': 800, 'main': 'Clear', 'description': 'clear sky', 'icon': '01d'}]",120.0,,4.7
119,stations,32,200,-0.95,122.79,1537731590,1637001,1009.01,92,1009.01,1025.02,77.3,77.3,77.3,Luwuk,,,ID,,0.0044,1537652269,1537695861,,,"[{'id': 802, 'main': 'Clouds', 'description': 'scattered clouds', 'icon': '03n'}]",212.504,,6.73
120,stations,56,200,-35.17,173.16,1537731590,2194098,1013.3,91,1013.3,1026.73,55.43,55.43,55.43,Ahipara,,,NZ,,0.0124,1537640106,1537683884,,,"[{'id': 803, 'main': 'Clouds', 'description': 'broken clouds', 'icon': '04n'}]",272.504,,11.77
121,stations,68,200,71.64,128.87,1537731591,2015306,1006.49,100,1006.49,1023.97,25.55,25.55,25.55,Tiksi,,,RU,,0.0047,1537650552,1537694516,,,"[{'id': 803, 'main': 'Clouds', 'description': 'broken clouds', 'icon': '04n'}]",190.004,,3.49
122,stations,36,200,53.59,142.95,1537731591,2122614,1023.03,97,1023.03,1025.83,44.63,44.63,44.63,Okha,,0.2925,RU,,0.0089,1537647370,1537691020,,,"[{'id': 500, 'main': 'Rain', 'description': 'light rain', 'icon': '10n'}]",191.504,,3.04
123,stations,24,200,62.23,-6.59,1537730400,2618795,,69,1023.0,,39.2,39.2,39.2,Klaksvik,,,FO,5266.0,0.0033,1537683262,1537726864,1.0,,"[{'id': 801, 'main': 'Clouds', 'description': 'few clouds', 'icon': '02n'}]",310.0,,5.82
124,stations,68,200,66.77,123.37,1537731592,2012530,1020.35,100,1020.35,1028.71,34.64,34.64,34.64,Zhigansk,,,RU,,0.0033,1537651963,1537695777,,,"[{'id': 803, 'main': 'Clouds', 'description': 'broken clouds', 'icon': '04n'}]",162.004,,7.07
125,stations,76,200,12.24,109.19,1537731592,1572151,1005.6,100,1005.6,1023.97,78.56,78.56,78.56,Nha Trang,,,VN,,0.0029,1537655542,1537699103,,,"[{'id': 803, 'main': 'Clouds', 'description': 'broken clouds', 'icon': '04n'}]",289.004,,2.71
126,stations,92,200,4.14,96.13,1537731592,1214488,1021.57,100,1021.57,1023.77,77.66,77.66,77.66,Meulaboh,,,ID,,0.0031,1537658671,1537702248,,,"[{'id': 804, 'main': 'Clouds', 'description': 'overcast clouds', 'icon': '04n'}]",140.504,,4.94
127,stations,8,200,22.57,59.53,1537731362,286245,990.77,87,990.77,1021.21,84.32,84.32,84.32,Sur,,,OM,,0.0037,1537667464,1537711003,,,"[{'id': 800, 'main': 'Clear', 'description': 'clear sky', 'icon': '02n'}]",218.004,,6.4
128,stations,92,200,62.53,155.8,1537731593,2122493,932.97,85,932.97,1024.98,30.77,30.77,30.77,Omsukchan,,,RU,,0.0056,1537644215,1537687982,,,"[{'id': 804, 'main': 'Clouds', 'description': 'overcast clouds', 'icon': '04n'}]",323.004,,3.27
129,stations,48,200,55.46,29.99,1537731593,628155,1002.68,89,1002.68,1022.02,47.42,47.42,47.42,Haradok,,,BY,,0.0037,1537674506,1537718087,,,"[{'id': 802, 'main': 'Clouds', 'description': 'scattered clouds', 'icon': '03n'}]",211.004,,8.08
130,stations,40,200,18.22,-63.06,1537729200,3573374,,62,1013.0,,86.94,87.8,86.0,The Valley,,,AI,4140.0,0.0037,1537696888,1537740411,1.0,10000.0,"[{'id': 802, 'main': 'Clouds', 'description': 'scattered clouds', 'icon': '03d'}]",110.0,,12.75
131,stations,75,200,45.63,-73.98,1537729200,6138501,,62,1024.0,,60.84,62.6,59.0,Saint-Augustin,,,CA,3831.0,0.005,1537699511,1537742996,1.0,72419.0,"[{'id': 803, 'main': 'Clouds', 'description': 'broken clouds', 'icon': '04d'}]",230.0,,3.36
132,stations,88,200,31.78,131.06,1537731594,1856775,996.36,91,996.36,1028.39,65.87,65.87,65.87,Miyakonojo,,,JP,,0.0033,1537650286,1537693845,,,"[{'id': 804, 'main': 'Clouds', 'description': 'overcast clouds', 'icon': '04n'}]",340.004,,2.15
133,stations,75,200,66.15,-65.72,1537729200,6096551,,74,998.0,,37.4,37.4,37.4,Pangnirtung,,,CA,3605.0,0.0049,1537697453,1537741032,1.0,24140.0,"[{'id': 803, 'main': 'Clouds', 'description': 'broken clouds', 'icon': '04d'}]",250.0,,10.29
134,stations,75,200,-4.62,55.45,1537729200,241131,,100,1014.0,,73.4,73.4,73.4,Victoria,,,SC,6865.0,0.0035,1537668420,1537712027,1.0,7000.0,"[{'id': 500, 'main': 'Rain', 'description': 'light rain', 'icon': '10n'}]",140.0,,14.99
135,stations,40,200,48.54,-2.78,1537729200,2986795,,81,1029.0,,53.76,55.4,50.0,Plerin,,,FR,5642.0,0.0031,1537682402,1537725932,1.0,10000.0,"[{'id': 802, 'main': 'Clouds', 'description': 'scattered clouds', 'icon': '03n'}]",340.0,,5.82
136,stations,12,200,4.58,13.68,1537731595,2234359,943.92,95,943.92,1025.39,68.03,68.03,68.03,Bertoua,,,CM,,0.0033,1537678456,1537722029,,,"[{'id': 801, 'main': 'Clouds', 'description': 'few clouds', 'icon': '02n'}]",289.504,,6.73
137,stations,40,200,-33.92,25.57,1537729200,964420,,87,1022.0,,53.6,53.6,53.6,Port Elizabeth,,,ZA,6596.0,0.0033,1537675498,1537719316,1.0,7000.0,"[{'id': 802, 'main': 'Clouds', 'description': 'scattered clouds', 'icon': '03n'}]",260.0,,6.93
138,stations,0,200,48.03,40.04,1537731596,582447,1009.74,82,1009.74,1030.17,53.0,53.0,53.0,Almaznyy,,,RU,,0.003,1537672116,1537715670,,,"[{'id': 800, 'main': 'Clear', 'description': 'clear sky', 'icon': '01n'}]",326.004,,11.88
139,stations,88,200,-6.22,155.63,1537731596,2094027,1000.98,100,1000.98,1020.85,76.76,76.76,76.76,Kieta,,2.0775,PG,,0.0035,1537644383,1537687991,,,"[{'id': 500, 'main': 'Rain', 'description': 'light rain', 'icon': '10n'}]",319.004,,12.66
140,stations,1,200,25.67,-97.82,1537728780,3514868,,63,1014.0,,85.08,87.08,84.2,Valle Hermoso,,,MX,2570.0,0.0074,1537705238,1537748735,1.0,16093.0,"[{'id': 800, 'main': 'Clear', 'description': 'clear sky', 'icon': '01d'}]",,,4.7
141,stations,0,200,-9.65,120.26,1537731597,1622318,990.28,92,990.28,1025.83,68.3,68.3,68.3,Waingapu,,,ID,,0.0039,1537652863,1537696487,,,"[{'id': 800, 'main': 'Clear', 'description': 'clear sky', 'icon': '01n'}]",115.504,,5.5
142,stations,40,200,36.62,-121.92,1537728900,5380437,,80,1015.0,,66.69,75.2,57.92,Pacific Grove,,,US,431.0,0.0042,1537711028,1537754497,1.0,12874.0,"[{'id': 802, 'main': 'Clouds', 'description': 'scattered clouds', 'icon': '03d'}]",280.0,,6.93
143,stations,75,200,35.03,136.69,1537729200,1848373,,88,1014.0,,71.6,71.6,71.6,Fukue,,,JP,7559.0,0.0064,1537648930,1537692495,1.0,10000.0,"[{'id': 803, 'main': 'Clouds', 'description': 'broken clouds', 'icon': '04n'}]",360.0,,9.17
144,stations,8,200,-20.56,164.28,1537731598,2140558,1014.68,80,1014.68,1030.62,69.38,69.38,69.38,Koumac,,,NC,,0.0033,1537642282,1537685953,,,"[{'id': 800, 'main': 'Clear', 'description': 'clear sky', 'icon': '02n'}]",123.504,,6.62
145,stations,0,200,15.44,119.9,1537731599,1696188,992.31,100,992.31,1021.74,73.34,73.34,73.34,Palauig,,,PH,,0.0035,1537652972,1537696530,,,"[{'id': 800, 'main': 'Clear', 'description': 'clear sky', 'icon': '01n'}]",98.5035,,1.92
146,stations,92,200,28.37,129.48,1537731599,1855540,1022.14,100,1022.14,1025.43,76.31,76.31,76.31,Naze,,2.765,JP,,0.0033,1537650669,1537694224,,,"[{'id': 500, 'main': 'Rain', 'description': 'light rain', 'icon': '10n'}]",60.5035,,12.44
147,stations,8,200,-7.94,110.25,1537731599,1626493,995.15,98,995.15,1025.83,64.16,64.16,64.16,Srandakan,,,ID,,0.003,1537655268,1537698885,,,"[{'id': 800, 'main': 'Clear', 'description': 'clear sky', 'icon': '02n'}]",117.504,,2.37
148,stations,0,200,40.71,112.04,1537729200,2052479,,71,1024.0,,39.2,39.2,39.2,Zhuhai,,,CN,7406.0,0.0032,1537654839,1537698407,1.0,10000.0,"[{'id': 800, 'main': 'Clear', 'description': 'clear sky', 'icon': '01n'}]",30.0,,4.47
149,stations,88,200,34.7,138.93,1537731600,1852357,1019.62,100,1019.62,1028.71,73.25,73.25,73.25,Shimoda,,0.1375,JP,,0.0041,1537648392,1537691958,,,"[{'id': 500, 'main': 'Rain', 'description': 'light rain', 'icon': '10n'}]",21.5035,,10.65
150,stations,24,200,-8.26,-49.26,1537731600,3401845,1001.87,40,1001.87,1020.2,91.16,91.16,91.16,Conceicao do Araguaia,,,BR,,0.0043,1537693534,1537737165,,,"[{'id': 801, 'main': 'Clouds', 'description': 'few clouds', 'icon': '02d'}]",338.504,,6.62
151,stations,0,200,44.51,50.26,1537731600,609906,1026.59,100,1026.59,1030.17,60.47,60.47,60.47,Fort-Shevchenko,,,KZ,,0.0036,1537669670,1537713218,,,"[{'id': 800, 'main': 'Clear', 'description': 'clear sky', 'icon': '01n'}]",251.004,,5.5
152,stations,0,200,22.69,58.55,1537731601,287832,947.97,68,947.97,1022.71,66.68,66.68,66.68,Ibra,,,OM,,0.0033,1537667699,1537711238,,,"[{'id': 800, 'main': 'Clear', 'description': 'clear sky', 'icon': '01n'}]",242.004,,2.59
153,stations,8,200,42.84,93.51,1537731601,1529484,943.35,50,943.35,1024.21,51.02,51.02,51.02,Hami,,,CN,,0.0057,1537659285,1537702851,,,"[{'id': 800, 'main': 'Clear', 'description': 'clear sky', 'icon': '02n'}]",105.504,,5.5
154,stations,1,200,42.48,-79.33,1537728960,5115495,,60,1023.0,,63.9,66.02,62.06,Dunkirk,,,US,2096.0,0.0033,1537700799,1537744281,1.0,16093.0,"[{'id': 800, 'main': 'Clear', 'description': 'clear sky', 'icon': '01d'}]",360.0,,10.29
155,stations,56,200,-0.92,100.36,1537731602,1633419,1018.33,100,1018.33,1023.61,77.48,77.48,77.48,Padang,,9.645,ID,,0.0042,1537657650,1537701243,,,"[{'id': 501, 'main': 'Rain', 'description': 'moderate rain', 'icon': '10n'}]",348.504,,5.73
156,stations,20,200,35.04,32.42,1537731000,146137,,88,1015.0,,69.8,69.8,69.8,Polis,,,CY,5450.0,0.0246,1537673967,1537717495,1.0,10000.0,"[{'id': 801, 'main': 'Clouds', 'description': 'few clouds', 'icon': '02n'}]",340.0,,4.7
157,stations,88,200,-0.6,73.08,1537731602,1282256,1024.41,100,1024.41,1024.54,83.42,83.42,83.42,Hithadhoo,,,MV,,0.0347,1537664196,1537707788,,,"[{'id': 804, 'main': 'Clouds', 'description': 'overcast clouds', 'icon': '04n'}]",170.504,,5.61
158,stations,8,200,-1.45,-45.72,1537731603,3403395,1023.84,95,1023.84,1023.81,81.53,81.53,81.53,Candido Mendes,,,BR,,0.0245,1537692699,1537736295,,,"[{'id': 800, 'main': 'Clear', 'description': 'clear sky', 'icon': '02d'}]",67.5035,,15.57
159,stations,68,200,5.56,95.32,1537731603,1215502,997.5,100,997.5,1023.48,72.98,72.98,72.98,Banda Aceh,,,ID,,0.0076,1537658866,1537702440,,,"[{'id': 803, 'main': 'Clouds', 'description': 'broken clouds', 'icon': '04n'}]",218.004,,2.15
160,stations,20,200,-17.88,36.89,1537729200,1028434,,88,1018.0,,73.4,73.4,73.4,Quelimane,,,MZ,6858.0,0.003,1537672844,1537716522,1.0,10000.0,"[{'id': 801, 'main': 'Clouds', 'description': 'few clouds', 'icon': '02n'}]",130.0,,4.7
161,stations,92,200,63.93,31.65,1537731603,524100,983.55,83,983.55,1005.57,46.34,46.34,46.34,Muyezerskiy,,0.46,RU,,0.0032,1537674054,1537717714,,,"[{'id': 500, 'main': 'Rain', 'description': 'light rain', 'icon': '10n'}]",232.504,,7.85
162,stations,40,200,26.19,-98.16,1537730100,4726440,,53,1014.0,,85.62,87.98,84.2,San Juan,,,US,2603.0,0.0044,1537705320,1537748816,1.0,16093.0,"[{'id': 802, 'main': 'Clouds', 'description': 'scattered clouds', 'icon': '03d'}]",310.0,,6.93
163,stations,90,200,49.06,-122.49,1537731300,7669018,,76,1022.0,,57.9,60.8,57.02,Aldergrove,,,CA,2928.0,0.0262,1537711160,1537754620,1.0,16093.0,"[{'id': 804, 'main': 'Clouds', 'description': 'overcast clouds', 'icon': '04d'}]",265.004,,2.37
164,stations,1,200,39.95,-94.76,1537728780,4407665,,50,1017.0,,77.0,77.0,77.0,Kodiak,,,US,1664.0,0.0136,1537704506,1537747982,1.0,16093.0,"[{'id': 800, 'main': 'Clear', 'description': 'clear sky', 'icon': '01d'}]",140.0,8.2,12.75
165,stations,92,200,-9.01,-35.22,1537731605,3395458,1019.14,83,1019.14,1027.74,76.76,76.76,76.76,Maragogi,,,BR,,0.005,1537690164,1537733798,,,"[{'id': 804, 'main': 'Clouds', 'description': 'overcast clouds', 'icon': '04d'}]",123.504,,10.65
166,stations,20,200,-20.22,-70.14,1537729200,3887127,,60,1011.0,,68.0,68.0,68.0,Iquique,,,CL,4644.0,0.0067,1537698508,1537742222,1.0,10000.0,"[{'id': 801, 'main': 'Clouds', 'description': 'few clouds', 'icon': '02d'}]",210.0,,20.8
167,stations,0,200,14.2,24.66,1537731605,371745,898.52,48,898.52,1023.85,74.06,74.06,74.06,Kutum,,,SD,,0.0043,1537675830,1537719377,,,"[{'id': 800, 'main': 'Clear', 'description': 'clear sky', 'icon': '01n'}]",147.504,,7.4
168,stations,0,200,-33.01,17.94,1537729200,3361934,,82,1017.0,,55.4,55.4,55.4,Saldanha,,,ZA,6575.0,0.0031,1537677332,1537721143,1.0,,"[{'id': 800, 'main': 'Clear', 'description': 'clear sky', 'icon': '01n'}]",210.0,,8.05
169,stations,36,200,61.68,96.39,1537731606,1510689,966.21,80,966.21,1027.74,31.49,31.49,31.49,Baykit,,,RU,,0.0085,1537658507,1537702203,,,"[{'id': 802, 'main': 'Clouds', 'description': 'scattered clouds', 'icon': '03n'}]",165.504,,2.59
170,stations,92,200,41.12,80.26,1537731606,1529660,861.56,70,861.56,1023.32,54.62,54.62,54.62,Aksu,,,CN,,0.0041,1537662471,1537706026,,,"[{'id': 804, 'main': 'Clouds', 'description': 'overcast clouds', 'icon': '04n'}]",330.504,,3.71
171,stations,88,200,66.04,60.13,1537731607,1505579,1006.82,90,1006.82,1018.66,60.2,60.2,60.2,Inta,,,RU,,0.0031,1537667184,1537710908,,,"[{'id': 804, 'main': 'Clouds', 'description': 'overcast clouds', 'icon': '04n'}]",207.504,,5.61
172,stations,8,200,53.05,158.65,1537729200,2122104,,100,1016.0,,33.8,33.8,33.8,Petropavlovsk-Kamchatskiy,,,RU,7248.0,0.0038,1537643600,1537687257,1.0,10000.0,"[{'id': 800, 'main': 'Clear', 'description': 'clear sky', 'icon': '02n'}]",360.0,,8.95
173,stations,88,200,-42.72,170.96,1537731607,2206894,1005.85,100,1005.85,1017.12,48.77,48.77,48.77,Hokitika,,3.6925,NZ,,0.0032,1537640596,1537684461,,,"[{'id': 501, 'main': 'Rain', 'description': 'moderate rain', 'icon': '10n'}]",4.00354,,6.4
174,stations,75,200,62.45,-114.38,1537729200,6185377,,65,1003.0,,44.6,44.6,44.6,Yellowknife,,,CA,3558.0,0.0037,1537709178,1537752675,1.0,24140.0,"[{'id': 803, 'main': 'Clouds', 'description': 'broken clouds', 'icon': '04d'}]",190.0,14.9,21.92
175,stations,76,200,39.73,98.49,1537731608,1280957,787.88,42,787.88,1024.82,40.76,40.76,40.76,Jiuquan,,,CN,,0.0071,1537658095,1537701655,,,"[{'id': 803, 'main': 'Clouds', 'description': 'broken clouds', 'icon': '04n'}]",298.504,,1.14
176,stations,76,200,-0.61,-47.36,1537731608,3389822,1023.51,94,1023.51,1023.56,81.71,81.71,81.71,Salinopolis,,,BR,,0.0036,1537693095,1537736687,,,"[{'id': 803, 'main': 'Clouds', 'description': 'broken clouds', 'icon': '04d'}]",65.5035,,15.57
177,stations,92,200,67.55,63.78,1537731609,1486910,998.63,96,998.63,1018.17,55.97,55.97,55.97,Komsomolskiy,,0.1725,RU,,0.0057,1537666287,1537710045,,,"[{'id': 500, 'main': 'Rain', 'description': 'light rain', 'icon': '10n'}]",217.004,,10.54
178,stations,48,200,-19.55,169.27,1537731609,2136825,1027.73,100,1027.73,1029.81,71.54,71.54,71.54,Isangel,,,VU,,0.0038,1537641088,1537684752,,,"[{'id': 802, 'main': 'Clouds', 'description': 'scattered clouds', 'icon': '03n'}]",124.004,,14.56
179,stations,0,200,-20.73,139.49,1537729200,2065594,,44,1018.0,,57.2,57.2,57.2,Mount Isa,,,AU,8171.0,0.0137,1537648228,1537691905,1.0,10000.0,"[{'id': 800, 'main': 'Clear', 'description': 'clear sky', 'icon': '01n'}]",118.004,,8.3
180,stations,90,200,15.86,-97.07,1537728240,3520994,,70,1014.0,,86.0,86.0,86.0,Puerto Escondido,,,MX,4010.0,0.0039,1537705049,1537748574,1.0,14484.0,"[{'id': 804, 'main': 'Clouds', 'description': 'overcast clouds', 'icon': '04d'}]",180.0,,3.36
181,stations,20,200,61.99,-49.67,1537731610,3421193,987.2,87,987.2,989.81,42.38,42.38,42.38,Paamiut,,,GL,,0.0048,1537693621,1537737179,,,"[{'id': 801, 'main': 'Clouds', 'description': 'few clouds', 'icon': '02d'}]",117.504,,44.43
182,stations,20,200,47.66,-52.73,1537729200,6167817,,47,1018.0,,59.0,59.0,59.0,Torbay,,,CA,3467.0,0.0037,1537694403,1537737903,1.0,24140.0,"[{'id': 801, 'main': 'Clouds', 'description': 'few clouds', 'icon': '02d'}]",230.0,,10.29
183,stations,24,200,31.34,69.45,1537731610,1162105,838.62,93,838.62,1023.44,50.93,50.93,50.93,Zhob,,,PK,,0.0037,1537665079,1537708618,,,"[{'id': 801, 'main': 'Clouds', 'description': 'few clouds', 'icon': '02n'}]",106.504,,2.59
184,stations,48,200,-12.35,13.55,1537731611,3347939,956.4,90,956.4,1026.0,63.8,63.8,63.8,Lobito,,,AO,,0.0031,1537678457,1537722105,,,"[{'id': 802, 'main': 'Clouds', 'description': 'scattered clouds', 'icon': '03n'}]",305.504,,1.14
185,stations,75,200,71.0,24.66,1537730400,779622,,93,975.0,,46.4,46.4,46.4,Havoysund,,,NO,5296.0,0.0036,1537675649,1537719433,1.0,10000.0,"[{'id': 520, 'main': 'Rain', 'description': 'light intensity shower rain', 'icon': '09n'}]",240.0,,9.17
186,stations,68,200,-0.86,131.25,1537731611,1626542,1020.52,100,1020.52,1023.52,80.36,80.36,80.36,Sorong,,,ID,,0.0037,1537650239,1537693831,,,"[{'id': 803, 'main': 'Clouds', 'description': 'broken clouds', 'icon': '04n'}]",195.004,,13.67
187,stations,0,200,-32.41,-63.24,1537731612,3832694,1001.79,47,1001.79,1020.0,83.78,83.78,83.78,Villa Maria,,,AR,,0.0036,1537696800,1537740631,,,"[{'id': 800, 'main': 'Clear', 'description': 'clear sky', 'icon': '01d'}]",111.004,,11.88
188,stations,75,200,58.81,-122.69,1537729200,5955902,,56,1006.0,,44.6,44.6,44.6,Fort Nelson,,,CA,3278.0,0.0029,1537711189,1537754664,1.0,48279.0,"[{'id': 803, 'main': 'Clouds', 'description': 'broken clouds', 'icon': '04d'}]",170.0,,4.7
189,stations,75,200,35.73,140.83,1537729200,2112802,,94,1015.0,,68.76,71.6,66.2,Hasaki,,,JP,7505.0,0.0033,1537647935,1537691503,1.0,10000.0,"[{'id': 803, 'main': 'Clouds', 'description': 'broken clouds', 'icon': '04n'}]",20.0,,4.7
190,stations,32,200,-1.68,-50.48,1537731613,3404817,1021.41,84,1021.41,1021.54,82.07,82.07,82.07,Breves,,3.025,BR,,0.0034,1537693841,1537737438,,,"[{'id': 501, 'main': 'Rain', 'description': 'moderate rain', 'icon': '10d'}]",37.0035,,7.4
191,stations,92,200,-7.93,-14.42,1537731613,2411397,1027.57,100,1027.57,1027.66,75.14,75.14,75.14,Georgetown,,,SH,,0.0035,1537685177,1537728803,,,"[{'id': 804, 'main': 'Clouds', 'description': 'overcast clouds', 'icon': '04n'}]",120.504,,16.02
192,stations,12,200,-4.39,-59.59,1537731613,3405051,1012.66,50,1012.66,1018.62,91.79,91.79,91.79,Borba,,,BR,,0.0029,1537696021,1537739632,,,"[{'id': 801, 'main': 'Clouds', 'description': 'few clouds', 'icon': '02d'}]",46.5035,,2.26
193,stations,90,200,53.22,-106.39,1537730220,6145951,,80,1019.0,,32.0,32.0,32.0,Shellbrook,,,CA,3926.0,0.0035,1537707285,1537750760,1.0,4828.0,"[{'id': 300, 'main': 'Drizzle', 'description': 'light intensity drizzle', 'icon': '09d'}, {'id': 701, 'main': 'Mist', 'description': 'mist', 'icon': '50d'}]",110.0,,11.41
194,stations,40,200,40.77,-72.85,1537730400,5126209,,72,1023.0,,65.46,66.02,64.22,Mastic Beach,,,US,2135.0,0.0043,1537699243,1537742729,1.0,16093.0,"[{'id': 802, 'main': 'Clouds', 'description': 'scattered clouds', 'icon': '03d'}]",,,4.7
195,stations,12,200,-9.17,-60.63,1537731614,3665202,1004.95,62,1004.95,1018.54,88.01,88.01,88.01,Aripuana,,2.105,BR,,0.0036,1537696260,1537739897,,,"[{'id': 500, 'main': 'Rain', 'description': 'light rain', 'icon': '10d'}]",72.5035,,1.14
196,stations,56,200,18.62,-100.35,1537731614,3981460,899.17,51,899.17,1019.35,83.96,83.96,83.96,Coahuayana,,0.475,MX,,0.0036,1537705839,1537749355,,,"[{'id': 500, 'main': 'Rain', 'description': 'light rain', 'icon': '10d'}]",331.004,,2.15
197,stations,32,200,16.28,-0.04,1537731376,2457163,991.98,49,991.98,1023.61,85.49,85.49,85.49,Gao,,,ML,,0.0152,1537681760,1537725299,,,"[{'id': 802, 'main': 'Clouds', 'description': 'scattered clouds', 'icon': '03n'}]",253.504,,2.93
198,stations,24,200,-17.01,48.57,1537731615,1076194,917.65,93,917.65,1033.94,56.69,56.69,56.69,Andilamena,,,MG,,0.0035,1537670045,1537713715,,,"[{'id': 801, 'main': 'Clouds', 'description': 'few clouds', 'icon': '02n'}]",112.004,,6.06
199,stations,8,200,62.72,129.66,1537731615,2019488,1012.41,95,1012.41,1028.39,36.44,36.44,36.44,Namtsy,,,RU,,0.0037,1537650498,1537694242,,,"[{'id': 800, 'main': 'Clear', 'description': 'clear sky', 'icon': '02n'}]",286.504,,6.4
200,stations,90,200,69.44,-133.03,1537729200,6170031,,86,1008.0,,28.4,28.4,28.4,Tuktoyaktuk,,,CA,3555.0,0.0031,1537713619,1537757147,1.0,24140.0,"[{'id': 600, 'main': 'Snow', 'description': 'light snow', 'icon': '13d'}]",60.0,,6.93
201,stations,75,200,18.55,-88.26,1537728000,3531816,,70,1012.0,,87.8,87.8,87.8,Calderitas,,,MX,3970.0,0.0037,1537702937,1537746455,1.0,11265.0,"[{'id': 803, 'main': 'Clouds', 'description': 'broken clouds', 'icon': '04d'}]",100.0,,8.05
202,stations,88,200,65.61,-37.64,1537728600,3424607,,74,1008.0,,35.6,35.6,35.6,Tasiilaq,,0.4475,GL,4806.0,0.0035,1537690704,1537734308,1.0,,"[{'id': 500, 'main': 'Rain', 'description': 'light rain', 'icon': '10d'}]",60.0,,24.16
203,stations,12,200,13.08,109.3,1537731561,1563281,1009.25,100,1009.25,1024.21,74.42,74.42,74.42,Tuy Hoa,,,VN,,0.0032,1537655516,1537699075,,,"[{'id': 801, 'main': 'Clouds', 'description': 'few clouds', 'icon': '02n'}]",271.004,,4.72
204,stations,8,200,-42.52,172.83,1537731617,2190299,936.7,80,936.7,1017.97,42.74,42.74,42.74,Hanmer Springs,,,NZ,,0.0036,1537640149,1537684010,,,"[{'id': 800, 'main': 'Clear', 'description': 'clear sky', 'icon': '02n'}]",45.0035,,2.26
205,stations,56,200,-35.1,173.78,1537731617,2189343,1011.52,81,1011.52,1026.56,55.61,55.61,55.61,Kaeo,,,NZ,,0.0037,1537639958,1537683735,,,"[{'id': 803, 'main': 'Clouds', 'description': 'broken clouds', 'icon': '04n'}]",270.504,,9.08
206,stations,92,200,58.65,30.3,1537731618,578732,1008.85,94,1008.85,1015.13,49.67,49.67,49.67,Batetskiy,,1.31,RU,,0.0036,1537674415,1537718020,,,"[{'id': 500, 'main': 'Rain', 'description': 'light rain', 'icon': '10n'}]",230.004,,7.96
207,stations,12,200,54.33,110.32,1537731618,2021188,888.15,66,888.15,1036.13,19.61,19.61,19.61,Kurumkan,,,RU,,0.0035,1537655207,1537698840,,,"[{'id': 801, 'main': 'Clouds', 'description': 'few clouds', 'icon': '02n'}]",42.0035,,2.04
208,stations,8,200,-22.95,14.51,1537729200,3359638,,81,1014.0,,53.6,53.6,53.6,Walvis Bay,,,NA,6925.0,0.0042,1537678196,1537721914,1.0,,"[{'id': 800, 'main': 'Clear', 'description': 'clear sky', 'icon': '02n'}]",120.0,,1.12
209,stations,90,200,51.52,5.07,1537730700,2755464,,93,1021.0,,50.0,50.0,50.0,Goirle,,,NL,5208.0,0.0054,1537680508,1537724053,1.0,10000.0,"[{'id': 300, 'main': 'Drizzle', 'description': 'light intensity drizzle', 'icon': '09n'}, {'id': 520, 'main': 'Rain', 'description': 'light intensity shower rain', 'icon': '09n'}]",300.0,,6.93
210,stations,8,200,27.97,-114.04,1537731619,4021858,1011.93,62,1011.93,1022.96,81.62,81.62,81.62,Guerrero Negro,,,MX,,0.0048,1537709133,1537752621,,,"[{'id': 800, 'main': 'Clear', 'description': 'clear sky', 'icon': '02d'}]",291.004,,11.21
211,stations,0,200,64.57,143.24,1537731619,2120048,902.33,93,902.33,1028.59,6.29,6.29,6.29,Ust-Nera,,,RU,,0.004,1537647212,1537691003,,,"[{'id': 800, 'main': 'Clear', 'description': 'clear sky', 'icon': '01n'}]",10.5035,,2.59
212,stations,40,200,48.86,-53.99,1537729200,5970873,,72,1016.0,,55.4,55.4,55.4,Hare Bay,,,CA,3449.0,0.0038,1537694704,1537738204,1.0,32186.0,"[{'id': 802, 'main': 'Clouds', 'description': 'scattered clouds', 'icon': '03d'}]",230.0,12.3,17.22
213,stations,20,200,52.14,-10.27,1537731620,2964782,1043.78,100,1043.78,1050.44,51.83,51.83,51.83,Dingle,,,IE,,0.0031,1537684192,1537727729,,,"[{'id': 801, 'main': 'Clouds', 'description': 'few clouds', 'icon': '02n'}]",353.004,,9.08
214,stations,40,200,16.18,-22.92,1537729200,3374235,,65,1013.0,,80.6,80.6,80.6,Sal Rei,,,CV,6187.0,0.0031,1537687252,1537730787,1.0,10000.0,"[{'id': 802, 'main': 'Clouds', 'description': 'scattered clouds', 'icon': '03d'}]",20.0,,13.87
215,stations,0,200,-23.7,133.88,1537729200,2077895,,32,1022.0,,51.8,51.8,51.8,Alice Springs,,,AU,8163.0,0.0028,1537649565,1537693262,1.0,10000.0,"[{'id': 800, 'main': 'Clear', 'description': 'clear sky', 'icon': '01n'}]",240.0,,6.93
216,stations,32,200,47.47,84.87,1537731621,1517060,907.93,74,907.93,1028.35,38.15,38.15,38.15,Zaysan,,,KZ,,0.0037,1537661349,1537704926,,,"[{'id': 802, 'main': 'Clouds', 'description': 'scattered clouds', 'icon': '03n'}]",183.504,,2.59
217,stations,75,200,5.73,115.93,1537729200,1733353,,88,1011.0,,75.2,75.2,75.2,Papar,,,MY,8114.0,0.0033,1537653921,1537697495,1.0,10000.0,"[{'id': 803, 'main': 'Clouds', 'description': 'broken clouds', 'icon': '04n'}]",,,3.36
218,stations,0,200,-27.37,-70.33,1537729200,3893656,,59,1014.0,,64.4,64.4,64.4,Copiapo,,,CL,4634.0,0.0041,1537698525,1537742303,1.0,10000.0,"[{'id': 800, 'main': 'Clear', 'description': 'clear sky', 'icon': '01d'}]",270.0,,10.29
219,stations,0,200,-2.92,-39.92,1537731622,3393692,1018.33,65,1018.33,1023.89,81.89,81.89,81.89,Itarema,,,BR,,0.0038,1537691305,1537734908,,,"[{'id': 800, 'main': 'Clear', 'description': 'clear sky', 'icon': '01d'}]",78.0035,,16.02
220,stations,0,200,44.82,33.6,1537731622,690820,1026.59,100,1026.59,1033.62,56.69,56.69,56.69,Uhlove,,,UA,,0.0039,1537673671,1537717212,,,"[{'id': 800, 'main': 'Clear', 'description': 'clear sky', 'icon': '01n'}]",23.5035,,4.72
221,stations,88,200,-3.36,135.5,1537731622,1634614,947.73,89,947.73,1023.61,68.39,68.39,68.39,Nabire,,,ID,,0.0035,1537649216,1537692816,,,"[{'id': 804, 'main': 'Clouds', 'description': 'overcast clouds', 'icon': '04n'}]",166.004,,1.92
222,stations,92,200,-26.65,15.16,1537731622,3355672,1011.93,84,1011.93,1026.56,57.05,57.05,57.05,Luderitz,,,NA,,0.0035,1537678027,1537721775,,,"[{'id': 804, 'main': 'Clouds', 'description': 'overcast clouds', 'icon': '04n'}]",176.004,,14.9
223,stations,92,200,65.85,44.24,1537731623,527321,1004.47,99,1004.47,1009.46,50.21,50.21,50.21,Mezen,,0.81,RU,,0.0029,1537671008,1537714710,,,"[{'id': 500, 'main': 'Rain', 'description': 'light rain', 'icon': '10n'}]",213.004,,6.4
224,stations,1,200,44.37,-100.35,1537728780,5767918,,60,1009.0,,64.94,64.94,64.94,Pierre,,,US,2462.0,0.0038,1537705846,1537749318,1.0,16093.0,"[{'id': 800, 'main': 'Clear', 'description': 'clear sky', 'icon': '01d'}]",,,4.7
225,stations,0,200,29.9,69.52,1537731623,1183307,881.58,91,881.58,1022.84,58.31,58.31,58.31,Barkhan,,,PK,,0.003,1537665063,1537708602,,,"[{'id': 800, 'main': 'Clear', 'description': 'clear sky', 'icon': '01n'}]",37.0035,,2.93
226,stations,92,200,62.08,32.35,1537731624,486186,996.61,90,996.61,1010.32,48.41,48.41,48.41,Suoyarvi,,0.145,RU,,0.0094,1537673901,1537717539,,,"[{'id': 500, 'main': 'Rain', 'description': 'light rain', 'icon': '10n'}]",229.504,,7.18
227,stations,0,200,-9.11,124.89,1537731624,1651103,1002.77,100,1002.77,1025.63,73.07,73.07,73.07,Atambua,,,ID,,0.0027,1537651754,1537695375,,,"[{'id': 800, 'main': 'Clear', 'description': 'clear sky', 'icon': '01n'}]",141.004,,5.28
228,stations,20,200,-21.37,55.62,1537729200,6690296,,73,1022.0,,71.78,73.4,69.8,Saint-Joseph,,,RE,6792.0,0.0034,1537668341,1537712039,1.0,10000.0,"[{'id': 801, 'main': 'Clouds', 'description': 'few clouds', 'icon': '02n'}]",70.0,,5.82
229,stations,1,200,33.83,-78.68,1537730100,4589446,,63,1018.0,,82.67,84.02,80.6,North Myrtle Beach,,,US,2430.0,0.0048,1537700645,1537744134,1.0,16093.0,"[{'id': 800, 'main': 'Clear', 'description': 'clear sky', 'icon': '01d'}]",160.0,,9.17
230,stations,24,200,53.94,139.92,1537731625,2019935,1000.01,83,1000.01,1026.04,36.62,36.62,36.62,Mnogovershinnyy,,,RU,,0.008,1537648096,1537691747,,,"[{'id': 801, 'main': 'Clouds', 'description': 'few clouds', 'icon': '02n'}]",253.004,,2.15
231,stations,8,200,-0.13,-67.09,1537731625,3662342,1006.17,60,1006.17,1018.42,87.29,87.29,87.29,Sao Gabriel da Cachoeira,,2.0,BR,,0.0039,1537697829,1537741419,,,"[{'id': 500, 'main': 'Rain', 'description': 'light rain', 'icon': '10d'}]",72.5035,,2.04
232,stations,92,200,60.72,-46.03,1537728600,3420846,,70,988.0,,42.8,42.8,42.8,Qaqortoq,,1.3725,GL,4791.0,0.0036,1537692753,1537736305,1.0,,"[{'id': 500, 'main': 'Rain', 'description': 'light rain', 'icon': '10d'}]",220.0,,1.12
233,stations,90,200,-28.77,114.6,1537729200,2070998,,93,1019.0,,57.2,57.2,57.2,Geraldton,,,AU,8186.0,0.0033,1537654172,1537697912,1.0,10000.0,"[{'id': 804, 'main': 'Clouds', 'description': 'overcast clouds', 'icon': '04n'}]",20.0,,4.7
234,stations,48,200,6.37,126.17,1537731626,1698289,1016.3,100,1016.3,1021.5,82.34,82.34,82.34,Pundaguitan,,,PH,,0.0036,1537651464,1537695037,,,"[{'id': 802, 'main': 'Clouds', 'description': 'scattered clouds', 'icon': '03n'}]",278.004,,9.19
235,stations,90,200,46.19,-82.96,1537730100,5903851,,71,1025.0,,49.05,51.8,46.4,Blind River,,,CA,1403.0,0.0034,1537701667,1537745148,1.0,16093.0,"[{'id': 804, 'main': 'Clouds', 'description': 'overcast clouds', 'icon': '04d'}]",40.0,8.2,6.93
236,stations,20,200,57.8,158.67,1537731627,2120612,1015.81,92,1015.81,1028.19,43.64,43.64,43.64,Tigil,,,RU,,0.0066,1537643566,1537687269,,,"[{'id': 801, 'main': 'Clouds', 'description': 'few clouds', 'icon': '02n'}]",203.004,,9.31
237,stations,0,200,14.12,15.31,1537731627,2428394,985.66,66,985.66,1022.96,77.84,77.84,77.84,Mao,,,TD,,0.0028,1537678074,1537721620,,,"[{'id': 800, 'main': 'Clear', 'description': 'clear sky', 'icon': '01n'}]",180.004,,3.38
238,stations,92,200,40.29,97.04,1537731628,1528998,847.29,37,847.29,1024.98,49.22,49.22,49.22,Yumen,,,CN,,0.0034,1537658443,1537702003,,,"[{'id': 804, 'main': 'Clouds', 'description': 'overcast clouds', 'icon': '04n'}]",76.5035,,6.62
239,stations,20,200,12.67,100.9,1537729200,1606386,,88,1011.0,,77.0,77.0,77.0,Sattahip,,,TH,7926.0,0.0032,1537657532,1537701091,1.0,6000.0,"[{'id': 801, 'main': 'Clouds', 'description': 'few clouds', 'icon': '02n'}]",360.0,,3.36
240,stations,92,200,-41.87,-73.83,1537731628,3899695,1025.7,68,1025.7,1033.33,48.77,48.77,48.77,Ancud,,,CL,,0.0037,1537699279,1537743247,,,"[{'id': 804, 'main': 'Clouds', 'description': 'overcast clouds', 'icon': '04d'}]",291.004,,9.98
241,stations,0,200,-19.11,33.48,1537729200,1049261,,60,1021.0,,71.6,71.6,71.6,Chimoio,,,MZ,6847.0,0.0027,1537673658,1537717345,1.0,10000.0,"[{'id': 800, 'main': 'Clear', 'description': 'clear sky', 'icon': '01n'}]",100.0,,9.17
242,stations,0,200,-11.38,43.28,1537731629,921786,1022.06,99,1022.06,1030.01,76.31,76.31,76.31,Mitsamiouli,,,KM,,0.0031,1537671327,1537714966,,,"[{'id': 800, 'main': 'Clear', 'description': 'clear sky', 'icon': '01n'}]",110.004,,5.73
243,stations,92,200,69.49,88.39,1537731629,1490256,995.55,96,995.55,1016.23,42.92,42.92,42.92,Talnakh,,1.2375,RU,,0.0035,1537660337,1537704172,,,"[{'id': 500, 'main': 'Rain', 'description': 'light rain', 'icon': '10n'}]",227.504,,2.26
244,stations,0,200,-3.71,-38.6,1537729200,6320062,,65,1010.0,,82.4,82.4,82.4,Vila Velha,,,BR,4498.0,0.0038,1537690987,1537734593,1.0,10000.0,"[{'id': 800, 'main': 'Clear', 'description': 'clear sky', 'icon': '01d'}]",80.0,,13.87
245,stations,20,200,34.69,32.96,1537731000,145952,,88,1015.0,,75.27,77.0,69.8,Ypsonas,,,CY,5450.0,0.0036,1537673838,1537717366,1.0,10000.0,"[{'id': 801, 'main': 'Clouds', 'description': 'few clouds', 'icon': '02n'}]",340.0,,4.7
246,stations,88,200,-2.57,150.8,1537731631,2094342,1021.57,100,1021.57,1022.67,82.7,82.7,82.7,Kavieng,,,PG,,0.004,1537645546,1537689143,,,"[{'id': 804, 'main': 'Clouds', 'description': 'overcast clouds', 'icon': '04n'}]",235.004,,4.94
247,stations,90,200,24.01,-104.61,1537728300,4011743,,56,1023.0,,71.6,71.6,71.6,Paraiso,,,MX,3983.0,0.0064,1537706866,1537750367,1.0,19312.0,"[{'id': 804, 'main': 'Clouds', 'description': 'overcast clouds', 'icon': '04d'}]",340.0,,5.82
248,stations,0,200,40.8,32.2,1537731631,746940,885.88,82,885.88,1033.78,42.29,42.29,42.29,Gerede,,,TR,,0.0032,1537674014,1537717546,,,"[{'id': 800, 'main': 'Clear', 'description': 'clear sky', 'icon': '01n'}]",100.504,,1.59
249,stations,75,200,63.84,-22.43,1537729200,3416888,,75,1018.0,,42.8,42.8,42.8,Grindavik,,,IS,4832.0,0.0041,1537687059,1537730662,1.0,10000.0,"[{'id': 521, 'main': 'Rain', 'description': 'shower rain', 'icon': '09d'}]",220.0,,13.87
250,stations,75,200,7.04,134.26,1537728600,7671223,,83,1008.0,,80.6,80.6,80.6,Kloulklubed,,,PW,4054.0,0.0034,1537649523,1537693095,1.0,22530.0,"[{'id': 803, 'main': 'Clouds', 'description': 'broken clouds', 'icon': '04n'}]",240.0,,14.99
251,stations,32,200,18.48,31.82,1537731632,370481,984.53,23,984.53,1019.76,82.79,82.79,82.79,Marawi,,,SD,,0.0029,1537674114,1537717653,,,"[{'id': 802, 'main': 'Clouds', 'description': 'scattered clouds', 'icon': '03n'}]",69.5035,,4.61
252,stations,0,200,-33.04,-71.63,1537729200,3868626,,59,1018.0,,66.15,71.6,62.6,Valparaiso,,,CL,4663.0,0.0043,1537698809,1537742650,1.0,10000.0,"[{'id': 800, 'main': 'Clear', 'description': 'clear sky', 'icon': '01d'}]",170.0,,14.99
253,stations,8,200,-11.1,-77.61,1537731633,3939761,983.88,64,983.88,1023.16,69.56,69.56,69.56,Hualmay,,,PE,,0.0039,1537700328,1537743978,,,"[{'id': 800, 'main': 'Clear', 'description': 'clear sky', 'icon': '02d'}]",187.504,,6.51
254,stations,40,200,71.03,27.85,1537728600,778707,,87,976.0,,45.61,46.4,44.6,Mehamn,,,NO,5307.0,0.0035,1537674881,1537718670,1.0,10000.0,"[{'id': 520, 'main': 'Rain', 'description': 'light intensity shower rain', 'icon': '09n'}]",189.004,,15.68
255,stations,0,200,-41.43,147.14,1537729200,2160517,,94,1032.0,,32.0,32.0,32.0,Launceston,,,AU,8196.0,0.0032,1537646313,1537690172,1.0,10000.0,"[{'id': 800, 'main': 'Clear', 'description': 'clear sky', 'icon': '01n'}]",190.0,,6.93
256,stations,92,200,60.14,-45.24,1537731634,3421765,990.61,97,990.61,1002.37,38.78,38.78,38.78,Nanortalik,,2.75,GL,,0.0033,1537692566,1537736115,,,"[{'id': 500, 'main': 'Rain', 'description': 'light rain', 'icon': '10d'}]",173.504,,25.19
257,stations,0,200,-7.57,24.18,1537731634,214389,919.44,43,919.44,1021.38,76.76,76.76,76.76,Kaniama,,,CD,,0.0032,1537675917,1537719539,,,"[{'id': 800, 'main': 'Clear', 'description': 'clear sky', 'icon': '01n'}]",104.504,,3.6
258,stations,0,200,-38.66,178.02,1537731560,2206854,999.52,88,999.52,1020.08,55.88,55.88,55.88,Gisborne,,,NZ,,0.0037,1537638925,1537682737,,,"[{'id': 800, 'main': 'Clear', 'description': 'clear sky', 'icon': '01n'}]",270.504,,3.94
259,stations,44,200,-26.84,-53.58,1537731635,3448454,981.53,100,981.53,1023.16,69.56,69.56,69.56,Belmonte,,3.155,BR,,0.0056,1537694510,1537738279,,,"[{'id': 501, 'main': 'Rain', 'description': 'moderate rain', 'icon': '10d'}]",331.504,,2.48
260,stations,12,200,3.87,-67.92,1537731635,3671450,1001.79,82,1001.79,1019.63,82.52,82.52,82.52,Inirida,,1.74,CO,,0.0027,1537698036,1537741608,,,"[{'id': 500, 'main': 'Rain', 'description': 'light rain', 'icon': '10d'}]",288.504,,2.26
261,stations,40,200,49.12,-68.38,1537729200,5922281,,31,1022.0,,47.19,48.2,46.4,Chute-aux-Outardes,,,CA,3760.0,0.0202,1537698161,1537741653,1.0,14484.0,"[{'id': 802, 'main': 'Clouds', 'description': 'scattered clouds', 'icon': '03d'}]",330.0,8.7,10.29
262,stations,24,200,5.4,125.46,1537731636,1687186,1021.57,100,1021.57,1022.55,81.35,81.35,81.35,Sarangani,,,PH,,0.007,1537651634,1537695209,,,"[{'id': 801, 'main': 'Clouds', 'description': 'few clouds', 'icon': '02n'}]",260.504,,17.02
263,stations,12,200,-1.2,-46.02,1537731636,3402648,1023.43,75,1023.43,1023.69,81.98,81.98,81.98,Carutapera,,,BR,,0.0031,1537692772,1537736367,,,"[{'id': 801, 'main': 'Clouds', 'description': 'few clouds', 'icon': '02d'}]",63.5035,,11.43
264,stations,0,200,53.48,40.21,1537731637,583358,1006.98,94,1006.98,1026.04,47.24,47.24,47.24,Aleksandro-Nevskiy,,,RU,,0.0031,1537672058,1537715635,,,"[{'id': 800, 'main': 'Clear', 'description': 'clear sky', 'icon': '01n'}]",276.004,,7.63
265,stations,0,200,61.28,108.01,1537731637,2012956,991.5,81,991.5,1031.95,31.94,31.94,31.94,Yerbogachen,,,RU,,0.0031,1537655716,1537699418,,,"[{'id': 800, 'main': 'Clear', 'description': 'clear sky', 'icon': '01n'}]",155.004,,2.71
266,stations,20,200,26.54,-77.06,1537731637,3571913,1026.84,100,1026.84,1027.01,82.7,82.7,82.7,Marsh Harbour,,,BS,,0.0034,1537700254,1537743755,,,"[{'id': 801, 'main': 'Clouds', 'description': 'few clouds', 'icon': '02d'}]",47.5035,,7.29
267,stations,92,200,-20.11,16.16,1537729200,3353715,,22,1016.0,,80.6,80.6,80.6,Outjo,,,NA,6922.0,0.0043,1537677809,1537721506,1.0,,"[{'id': 804, 'main': 'Clouds', 'description': 'overcast clouds', 'icon': '04n'}]",90.0,,3.36
268,stations,75,200,62.58,6.12,1537730400,3141667,,65,1011.0,,42.75,44.6,41.0,Roald,,,NO,5271.0,0.0037,1537680204,1537723822,1.0,10000.0,"[{'id': 521, 'main': 'Rain', 'description': 'shower rain', 'icon': '09n'}]",310.0,,18.34
269,stations,0,200,-8.49,140.4,1537731638,2082539,1025.86,95,1025.86,1026.24,73.16,73.16,73.16,Merauke,,,ID,,0.0032,1537648034,1537691651,,,"[{'id': 800, 'main': 'Clear', 'description': 'clear sky', 'icon': '01n'}]",112.504,,13.11
270,stations,90,200,46.36,-79.93,1537729200,5952554,,93,1027.0,,39.2,39.2,39.2,Sturgeon Falls,,,CA,3690.0,0.0033,1537700939,1537744422,1.0,16093.0,"[{'id': 300, 'main': 'Drizzle', 'description': 'light intensity drizzle', 'icon': '09d'}]",40.0,,8.05
271,stations,56,200,54.02,-124.02,1537731598,6173361,923.08,62,923.08,1028.75,49.67,49.67,49.67,Vanderhoof,,,CA,,0.0032,1537711520,1537754983,,,"[{'id': 803, 'main': 'Clouds', 'description': 'broken clouds', 'icon': '04d'}]",259.004,,7.52
272,stations,12,200,-20.31,118.58,1537729200,2063042,,56,1014.0,,71.6,71.6,71.6,Port Hedland,,,AU,8219.0,0.0033,1537653244,1537696922,1.0,10000.0,"[{'id': 801, 'main': 'Clouds', 'description': 'few clouds', 'icon': '02n'}]",210.0,,11.41
273,stations,0,200,14.9,-24.5,1537731639,3374210,1016.06,94,1016.06,1027.74,79.1,79.1,79.1,Sao Filipe,,,CV,,0.0035,1537687630,1537731168,,,"[{'id': 800, 'main': 'Clear', 'description': 'clear sky', 'icon': '01n'}]",46.5035,,11.43
274,stations,0,200,-17.73,-39.27,1537731639,3466980,1029.92,100,1029.92,1029.93,77.39,77.39,77.39,Caravelas,,,BR,,0.0047,1537691112,1537734802,,,"[{'id': 800, 'main': 'Clear', 'description': 'clear sky', 'icon': '01d'}]",76.5035,,11.43
275,stations,80,200,67.47,78.7,1537731640,1489853,1012.9,99,1012.9,1016.43,48.32,48.32,48.32,Tazovskiy,,0.22,RU,,0.0149,1537662699,1537706473,,,"[{'id': 500, 'main': 'Rain', 'description': 'light rain', 'icon': '10n'}]",344.004,,8.86
276,stations,0,200,31.85,35.94,1537729200,248843,,47,1018.0,,73.38,75.2,71.6,Jawa,,,JO,7085.0,0.0034,1537673124,1537716653,1.0,6000.0,"[{'id': 800, 'main': 'Clear', 'description': 'clear sky', 'icon': '01n'}]",310.0,,6.93
277,stations,0,200,-31.97,141.45,1537731640,2173911,1010.55,70,1010.55,1043.59,47.78,47.78,47.78,Broken Hill,,,AU,,0.0087,1537647722,1537691481,,,"[{'id': 800, 'main': 'Clear', 'description': 'clear sky', 'icon': '01n'}]",147.004,,11.77
278,stations,32,200,-4.88,-66.9,1537731641,3664659,1009.9,40,1009.9,1017.89,93.59,93.59,93.59,Carauari,,,BR,,0.0033,1537697774,1537741387,,,"[{'id': 802, 'main': 'Clouds', 'description': 'scattered clouds', 'icon': '03d'}]",62.5035,,2.93
279,stations,0,200,16.51,-14.65,1537731641,2247684,1018.65,33,1018.65,1022.35,90.53,90.53,90.53,Ndioum,,,SN,,0.0034,1537685267,1537728803,,,"[{'id': 800, 'main': 'Clear', 'description': 'clear sky', 'icon': '01n'}]",145.504,,3.94
280,stations,0,200,50.68,156.12,1537731641,2121385,1021.16,100,1021.16,1034.39,43.64,43.64,43.64,Severo-Kurilsk,,,RU,,0.0149,1537644220,1537687857,,,"[{'id': 800, 'main': 'Clear', 'description': 'clear sky', 'icon': '01n'}]",285.004,,3.49
281,stations,40,200,63.75,-68.52,1537729200,5983720,,69,1002.0,,35.6,35.6,35.6,Iqaluit,,,CA,3590.0,0.0037,1537698143,1537741696,1.0,48279.0,"[{'id': 802, 'main': 'Clouds', 'description': 'scattered clouds', 'icon': '03d'}]",330.0,15.4,26.4
282,stations,44,200,9.06,-62.05,1537731642,3625929,1021.41,81,1021.41,1021.66,83.69,83.69,83.69,Tucupita,,2.6275,VE,,0.0044,1537696635,1537740187,,,"[{'id': 500, 'main': 'Rain', 'description': 'light rain', 'icon': '10d'}]",62.5035,,6.06
283,stations,56,200,-2.02,147.27,1537731642,2092164,1020.92,100,1020.92,1023.12,80.9,80.9,80.9,Lorengau,,,PG,,0.0116,1537646394,1537689989,,,"[{'id': 803, 'main': 'Clouds', 'description': 'broken clouds', 'icon': '04n'}]",155.004,,2.26
284,stations,1,200,35.3,-106.55,1537730100,5457198,,2,1023.0,,76.62,81.14,73.22,Bernalillo,,,US,2024.0,0.0043,1537707338,1537750814,1.0,16093.0,"[{'id': 800, 'main': 'Clear', 'description': 'clear sky', 'icon': '01d'}]",310.0,,3.36
285,stations,75,200,21.44,-157.84,1537729020,5856516,,76,1012.0,,82.04,82.04,82.04,Ahuimanu,,,US,828.0,0.0037,1537719642,1537763138,1.0,16093.0,"[{'id': 521, 'main': 'Rain', 'description': 'shower rain', 'icon': '09d'}]",100.0,,8.05
286,stations,44,200,-9.07,143.21,1537731643,2098329,1024.81,87,1024.81,1026.16,77.12,77.12,77.12,Daru,,,PG,,0.0038,1537647359,1537690978,,,"[{'id': 802, 'main': 'Clouds', 'description': 'scattered clouds', 'icon': '03n'}]",133.004,,14.56
287,stations,92,200,7.53,-12.5,1537731643,2409914,1023.43,100,1023.43,1026.12,71.27,71.27,71.27,Bonthe,,33.35,SL,,0.0035,1537684742,1537728303,,,"[{'id': 502, 'main': 'Rain', 'description': 'heavy intensity rain', 'icon': '10n'}]",88.0035,,3.04
288,stations,20,200,52.61,1.73,1537730400,2647984,,93,1025.0,,46.4,46.4,46.4,Great Yarmouth,,,GB,5141.0,0.0034,1537681307,1537724854,1.0,10000.0,"[{'id': 801, 'main': 'Clouds', 'description': 'few clouds', 'icon': '02n'}]",290.0,,6.93
289,stations,0,200,-13.19,49.05,1537731644,1082243,1006.58,65,1006.58,1030.78,70.19,70.19,70.19,Ambilobe,,,MG,,0.0033,1537669939,1537713587,,,"[{'id': 800, 'main': 'Clear', 'description': 'clear sky', 'icon': '01n'}]",114.504,,8.08
290,stations,20,200,-20.52,57.52,1537729200,933995,,78,1024.0,,73.4,73.4,73.4,Souillac,,,MU,6729.0,0.0032,1537667888,1537711580,1.0,10000.0,"[{'id': 801, 'main': 'Clouds', 'description': 'few clouds', 'icon': '02n'}]",110.0,,13.87
291,stations,92,200,-3.44,10.65,1537731645,2399001,1015.33,97,1015.33,1026.08,75.68,75.68,75.68,Mayumba,,0.125,GA,,0.0055,1537679171,1537722774,,,"[{'id': 500, 'main': 'Rain', 'description': 'light rain', 'icon': '10n'}]",205.504,,5.95
292,stations,90,200,64.84,-147.72,1537728780,5861897,,92,1004.0,,46.94,46.94,46.94,Fairbanks,0.25,,US,58.0,0.0036,1537717184,1537760658,1.0,16093.0,"[{'id': 500, 'main': 'Rain', 'description': 'light rain', 'icon': '10d'}]",210.0,,4.7
293,stations,0,200,33.77,120.25,1537731646,1808744,1031.94,87,1031.94,1032.77,56.42,56.42,56.42,Hede,,,CN,,0.0027,1537652879,1537696437,,,"[{'id': 800, 'main': 'Clear', 'description': 'clear sky', 'icon': '01n'}]",41.0035,,2.71
294,stations,0,200,45.14,35.15,1537731646,692714,1025.95,100,1025.95,1033.05,62.09,62.09,62.09,Partyzany,,,UA,,0.0041,1537673298,1537716840,,,"[{'id': 800, 'main': 'Clear', 'description': 'clear sky', 'icon': '01n'}]",333.504,,13.22
295,stations,44,200,-8.28,-70.75,1537731646,3661980,996.69,76,996.69,1019.35,84.14,84.14,84.14,Tamandare,,,BR,,0.0038,1537698690,1537742322,,,"[{'id': 802, 'main': 'Clouds', 'description': 'scattered clouds', 'icon': '03d'}]",345.504,,4.27
296,stations,64,200,-29.12,26.22,1537729200,1018725,,30,1020.0,,68.0,68.0,68.0,Bloemfontein,,,ZA,6522.0,0.0036,1537675364,1537719133,1.0,10000.0,"[{'id': 803, 'main': 'Clouds', 'description': 'broken clouds', 'icon': '04n'}]",150.0,,3.36
297,stations,0,200,65.58,22.15,1537730400,604490,,61,986.0,,46.4,46.4,46.4,Lulea,,,SE,5414.0,0.0038,1537676324,1537719996,1.0,10000.0,"[{'id': 800, 'main': 'Clear', 'description': 'clear sky', 'icon': '01n'}]",270.0,,13.87
298,stations,8,200,40.77,114.88,1537731647,2033196,910.03,81,910.03,1038.44,29.69,29.69,29.69,Zhangjiakou,,,CN,,0.0031,1537654157,1537697727,,,"[{'id': 800, 'main': 'Clear', 'description': 'clear sky', 'icon': '02n'}]",289.504,,2.71
299,stations,8,200,5.2,-73.14,1537731648,3674735,750.26,42,750.26,1018.21,67.13,67.13,67.13,Miraflores,,,CO,,0.0033,1537699291,1537742857,,,"[{'id': 800, 'main': 'Clear', 'description': 'clear sky', 'icon': '02d'}]",131.504,,2.71
300,stations,24,200,60.35,102.28,1537731648,2013727,988.09,85,988.09,1029.89,32.21,32.21,32.21,Vanavara,,,RU,,0.0031,1537657101,1537700786,,,"[{'id': 801, 'main': 'Clouds', 'description': 'few clouds', 'icon': '02n'}]",116.004,,2.59
301,stations,20,200,-20.01,57.66,1537729200,934479,,78,1024.0,,73.4,73.4,73.4,Grand Gaube,,,MU,6729.0,0.0034,1537667856,1537711544,1.0,10000.0,"[{'id': 801, 'main': 'Clouds', 'description': 'few clouds', 'icon': '02n'}]",110.0,,13.87
302,stations,68,200,-28.27,29.13,1537731649,997751,852.72,72,852.72,1031.75,56.96,56.96,56.96,Harrismith,,,ZA,,0.0037,1537674670,1537718430,,,"[{'id': 803, 'main': 'Clouds', 'description': 'broken clouds', 'icon': '04n'}]",315.004,,5.61
303,stations,0,200,-32.49,137.76,1537729200,2063056,,76,1029.0,,51.8,51.8,51.8,Port Augusta,,,AU,8241.0,0.003,1537648605,1537692370,1.0,10000.0,"[{'id': 800, 'main': 'Clear', 'description': 'clear sky', 'icon': '01n'}]",150.0,,8.05
304,stations,92,200,54.0,84.74,1537731649,1485528,995.79,99,995.79,1024.94,50.48,50.48,50.48,Zalesovo,,2.3075,RU,,0.0033,1537661356,1537704968,,,"[{'id': 500, 'main': 'Rain', 'description': 'light rain', 'icon': '10n'}]",203.504,,6.73
305,stations,1,200,20.89,-156.47,1537728960,5847411,,65,1013.0,,80.4,84.02,77.0,Kahului,,,US,823.0,0.0051,1537719312,1537762810,1.0,16093.0,"[{'id': 800, 'main': 'Clear', 'description': 'clear sky', 'icon': '01d'}]",82.5035,,5.73
306,stations,20,200,-33.02,27.91,1537725600,1006984,,87,1021.0,,59.0,59.0,59.0,East London,,,ZA,6538.0,0.004,1537674942,1537718749,1.0,9000.0,"[{'id': 801, 'main': 'Clouds', 'description': 'few clouds', 'icon': '02n'}]",260.0,,8.05
307,stations,0,200,-4.94,122.53,1537731650,1640972,1022.06,100,1022.06,1025.35,77.21,77.21,77.21,Katobu,,,ID,,0.0036,1537652326,1537695931,,,"[{'id': 800, 'main': 'Clear', 'description': 'clear sky', 'icon': '01n'}]",115.004,,5.28
308,stations,0,200,49.28,120.73,1537731650,2033536,945.94,76,945.94,1036.7,27.89,27.89,27.89,Yakeshi,,,CN,,0.003,1537652728,1537696334,,,"[{'id': 800, 'main': 'Clear', 'description': 'clear sky', 'icon': '01n'}]",290.504,,4.16
309,stations,1,200,60.55,-151.26,1537728960,5866063,,69,1008.0,,41.85,53.96,21.2,Kenai,,,US,91.0,0.0047,1537718052,1537761506,1.0,16093.0,"[{'id': 600, 'main': 'Snow', 'description': 'light snow', 'icon': '13d'}]",190.0,12.9,21.92
310,stations,0,200,-1.6,103.62,1537731651,1642858,1021.16,87,1021.16,1024.05,73.61,73.61,73.61,Jambi,,,ID,,0.0034,1537656867,1537700462,,,"[{'id': 800, 'main': 'Clear', 'description': 'clear sky', 'icon': '01n'}]",145.004,,2.93
311,stations,0,200,68.05,39.51,1537731651,556268,978.61,88,978.61,1003.51,46.16,46.16,46.16,Ostrovnoy,,,RU,,0.0037,1537672120,1537715856,,,"[{'id': 800, 'main': 'Clear', 'description': 'clear sky', 'icon': '01n'}]",207.504,,15.23
312,stations,24,200,15.44,-92.9,1537731651,3523590,955.67,90,955.67,1020.65,79.64,79.64,79.64,Mapastepec,,2.0075,MX,,0.0035,1537704047,1537747574,,,"[{'id': 500, 'main': 'Rain', 'description': 'light rain', 'icon': '10d'}]",216.504,,2.48
313,stations,0,200,53.01,31.6,1537729200,542788,,81,1013.0,,51.8,51.8,51.8,Krasnaya Gora,,,RU,7373.0,0.0033,1537674129,1537717698,1.0,10000.0,"[{'id': 800, 'main': 'Clear', 'description': 'clear sky', 'icon': '01n'}]",180.0,,11.18
314,stations,44,200,18.69,12.92,1537731652,2446796,967.59,18,967.59,1024.05,86.03,86.03,86.03,Bilma,,,NE,,0.0027,1537678651,1537722186,,,"[{'id': 802, 'main': 'Clouds', 'description': 'scattered clouds', 'icon': '03n'}]",125.504,,6.73
315,stations,68,200,-43.3,-65.11,1537731457,3839307,1011.12,45,1011.12,1022.23,57.32,57.32,57.32,Rawson,,,AR,,0.0036,1537697177,1537741166,,,"[{'id': 803, 'main': 'Clouds', 'description': 'broken clouds', 'icon': '04d'}]",249.504,,19.82
316,stations,36,200,11.79,7.62,1537731652,2331005,958.99,92,958.99,1025.43,70.28,70.28,70.28,Malumfashi,,1.11,NG,,0.0073,1537679918,1537723469,,,"[{'id': 500, 'main': 'Rain', 'description': 'light rain', 'icon': '10n'}]",216.004,,10.42
317,stations,20,200,-17.73,-149.15,1537729200,4033557,,69,1014.0,,80.6,80.6,80.6,Tautira,,,PF,8343.0,0.004,1537717468,1537761175,1.0,10000.0,"[{'id': 801, 'main': 'Clouds', 'description': 'few clouds', 'icon': '02d'}]",320.0,,5.82
318,stations,24,200,-37.62,-73.65,1537731653,3883457,1033.16,100,1033.16,1036.86,51.65,51.65,51.65,Lebu,,,CL,,0.0029,1537699266,1537743168,,,"[{'id': 801, 'main': 'Clouds', 'description': 'few clouds', 'icon': '02d'}]",254.504,,5.95
319,stations,92,200,4.38,-7.71,1537731653,2276492,1024.97,100,1024.97,1026.28,78.47,78.47,78.47,Harper,,,LR,,0.0029,1537683589,1537727161,,,"[{'id': 804, 'main': 'Clouds', 'description': 'overcast clouds', 'icon': '04n'}]",206.504,,9.19
320,stations,12,200,-31.47,19.78,1537731653,3369174,918.79,29,918.79,1031.75,41.84,41.84,41.84,Calvinia,,,ZA,,0.0032,1537676898,1537720692,,,"[{'id': 801, 'main': 'Clouds', 'description': 'few clouds', 'icon': '02n'}]",190.004,,3.38
321,stations,76,200,13.47,22.2,1537731654,245669,933.78,85,933.78,1024.66,71.54,71.54,71.54,Adre,,0.385,TD,,0.0036,1537676420,1537719968,,,"[{'id': 500, 'main': 'Rain', 'description': 'light rain', 'icon': '10n'}]",17.0035,,3.71
322,stations,0,200,43.31,129.76,1537731654,2034221,976.1,96,976.1,1028.27,40.67,40.67,40.67,Wangqing,,,CN,,0.0035,1537650577,1537694162,,,"[{'id': 800, 'main': 'Clear', 'description': 'clear sky', 'icon': '01n'}]",272.504,,4.05
323,stations,92,200,68.06,166.44,1537731654,2126682,969.45,99,969.45,1022.67,34.82,34.82,34.82,Bilibino,,0.465,RU,,0.0043,1537641582,1537685482,,,"[{'id': 500, 'main': 'Rain', 'description': 'light rain', 'icon': '10n'}]",256.504,,3.15
324,stations,75,200,8.13,77.3,1537731000,1263942,,88,1011.0,,78.8,78.8,78.8,Manavalakurichi,,,IN,7837.0,0.0037,1537663193,1537706759,1.0,4000.0,"[{'id': 721, 'main': 'Haze', 'description': 'haze', 'icon': '50n'}]",289.504,,3.27
325,stations,8,200,-18.06,13.84,1537731655,3354077,883.36,36,883.36,1023.81,63.26,63.26,63.26,Opuwo,,,NA,,0.0034,1537678372,1537722055,,,"[{'id': 800, 'main': 'Clear', 'description': 'clear sky', 'icon': '02n'}]",179.504,,3.04
326,stations,8,200,20.86,92.31,1537731656,1185095,1014.44,95,1014.44,1023.12,76.67,76.67,76.67,Teknaf,,,BD,,0.0037,1537659595,1537703142,,,"[{'id': 800, 'main': 'Clear', 'description': 'clear sky', 'icon': '02n'}]",37.0035,,1.59
327,stations,20,200,42.9,-79.62,1537729200,5944222,,48,1023.0,,66.18,68.0,64.4,Dunnville,,,CA,3661.0,0.004,1537700868,1537744350,1.0,24140.0,"[{'id': 801, 'main': 'Clouds', 'description': 'few clouds', 'icon': '02d'}]",70.0,,8.05
328,stations,12,200,-11.3,-41.86,1537731411,3461013,940.35,33,940.35,1023.28,84.77,84.77,84.77,Irece,,,BR,,0.0027,1537691751,1537735399,,,"[{'id': 801, 'main': 'Clouds', 'description': 'few clouds', 'icon': '02d'}]",116.504,,9.86
329,stations,24,200,37.16,122.42,1537731656,1786855,1028.78,100,1028.78,1033.45,53.09,53.09,53.09,Rongcheng,,,CN,,0.005,1537652353,1537695917,,,"[{'id': 801, 'main': 'Clouds', 'description': 'few clouds', 'icon': '02n'}]",285.004,,3.27
330,stations,75,200,64.73,177.51,1537729200,2127202,,81,1009.0,,42.8,42.8,42.8,Anadyr,,,RU,7238.0,0.0034,1537638969,1537682800,1.0,10000.0,"[{'id': 803, 'main': 'Clouds', 'description': 'broken clouds', 'icon': '04n'}]",170.0,,2.24
331,stations,0,200,59.33,54.32,1537731657,466349,1002.93,86,1002.93,1025.11,57.59,57.59,57.59,Yurla,,,RU,,0.0031,1537668638,1537712269,,,"[{'id': 800, 'main': 'Clear', 'description': 'clear sky', 'icon': '01n'}]",196.504,,8.75
332,stations,40,200,55.43,13.82,1537730400,2662149,,76,1006.0,,48.2,48.2,48.2,Ystad,,,SE,5397.0,0.0035,1537678392,1537721961,1.0,10000.0,"[{'id': 802, 'main': 'Clouds', 'description': 'scattered clouds', 'icon': '03n'}]",330.0,,6.93
333,stations,12,200,59.65,67.41,1537731657,1502697,1022.3,91,1022.3,1027.74,48.41,48.41,48.41,Kondinskoye,,,RU,,0.0033,1537665489,1537709135,,,"[{'id': 801, 'main': 'Clouds', 'description': 'few clouds', 'icon': '02n'}]",255.004,,5.95
334,stations,0,200,-34.18,142.16,1537731658,2157698,1036.73,72,1036.73,1045.53,44.36,44.36,44.36,Mildura,,,AU,,0.0032,1537647543,1537691322,,,"[{'id': 800, 'main': 'Clear', 'description': 'clear sky', 'icon': '01n'}]",151.004,,11.54
335,stations,0,200,-17.97,122.23,1537729200,2075720,,88,1013.0,,68.0,68.0,68.0,Broome,,,AU,8176.0,0.003,1537652374,1537696038,1.0,10000.0,"[{'id': 800, 'main': 'Clear', 'description': 'clear sky', 'icon': '01n'}]",190.0,,4.7
336,stations,75,200,-45.58,-72.07,1537729200,3894426,,66,1008.0,,47.19,48.2,46.4,Coihaique,,,CL,4643.0,0.0035,1537698826,1537742861,1.0,10000.0,"[{'id': 803, 'main': 'Clouds', 'description': 'broken clouds', 'icon': '04d'}]",250.0,,8.05
337,stations,92,200,60.91,-46.05,1537728600,3421719,,70,988.0,,42.8,42.8,42.8,Narsaq,,0.5875,GL,4791.0,0.0038,1537692757,1537736310,1.0,,"[{'id': 500, 'main': 'Rain', 'description': 'light rain', 'icon': '10d'}]",220.0,,1.12
338,stations,20,200,64.17,-51.74,1537728600,3421319,,32,983.0,,51.8,51.8,51.8,Nuuk,,,GL,4801.0,0.0127,1537694106,1537737680,1.0,,"[{'id': 801, 'main': 'Clouds', 'description': 'few clouds', 'icon': '02d'}]",70.0,,12.75
339,stations,12,200,8.96,117.58,1537731660,1691872,1007.87,96,1007.87,1023.2,77.75,77.75,77.75,Ransang,,,PH,,0.0033,1537653527,1537697094,,,"[{'id': 801, 'main': 'Clouds', 'description': 'few clouds', 'icon': '02n'}]",309.004,,4.72
340,stations,44,200,11.67,92.75,1537731660,1259385,1023.19,100,1023.19,1023.44,80.72,80.72,80.72,Port Blair,,0.6225,IN,,0.0041,1537659487,1537703047,,,"[{'id': 500, 'main': 'Rain', 'description': 'light rain', 'icon': '10n'}]",341.004,,6.51
341,stations,1,200,40.97,-117.74,1537728960,5710360,,4,1016.0,,75.02,75.02,75.02,Winnemucca,,,US,2078.0,0.0038,1537710024,1537753490,1.0,16093.0,"[{'id': 800, 'main': 'Clear', 'description': 'clear sky', 'icon': '01d'}]",240.0,9.3,11.41
342,stations,0,200,21.59,72.81,1537731661,1270413,1021.41,93,1021.41,1021.9,82.07,82.07,82.07,Hansot,,,IN,,0.0034,1537664276,1537707819,,,"[{'id': 800, 'main': 'Clear', 'description': 'clear sky', 'icon': '01n'}]",239.004,,15.12
343,stations,40,200,11.78,-72.45,1537729200,3675504,,74,1006.0,,87.8,87.8,87.8,Manaure,,,CO,4275.0,0.0184,1537699135,1537742676,1.0,10000.0,"[{'id': 802, 'main': 'Clouds', 'description': 'scattered clouds', 'icon': '03d'}]",40.0,,17.22
344,stations,90,200,64.86,-147.8,1537728780,5859699,,92,1004.0,,46.94,46.94,46.94,College,0.25,,US,58.0,0.0038,1537717203,1537760677,1.0,16093.0,"[{'id': 500, 'main': 'Rain', 'description': 'light rain', 'icon': '10d'}]",210.0,,4.7
345,stations,92,200,43.32,145.57,1537731662,2128975,1030.49,100,1030.49,1030.74,60.38,60.38,60.38,Nemuro,,0.1275,JP,,0.0038,1537646780,1537690372,,,"[{'id': 500, 'main': 'Rain', 'description': 'light rain', 'icon': '10n'}]",214.004,,7.96
346,stations,36,200,66.83,70.83,1537731604,1486321,1017.35,91,1017.35,1018.5,51.38,51.38,51.38,Yar-Sale,,,RU,,0.0325,1537664601,1537708352,,,"[{'id': 802, 'main': 'Clouds', 'description': 'scattered clouds', 'icon': '03n'}]",282.004,,8.97
347,stations,90,200,42.89,71.39,1537729200,1516905,,67,1019.0,,57.2,57.2,57.2,Taraz,,,KZ,7196.0,0.0039,1537664598,1537708153,1.0,10000.0,"[{'id': 804, 'main': 'Clouds', 'description': 'overcast clouds', 'icon': '04n'}]",191.004,,2.59
348,stations,20,200,37.48,47.05,1537731391,142554,824.43,76,824.43,1027.09,42.65,42.65,42.65,Hashtrud,,,IR,,0.0118,1537670452,1537713987,,,"[{'id': 801, 'main': 'Clouds', 'description': 'few clouds', 'icon': '02n'}]",3.00354,,1.92
349,stations,0,200,38.42,77.24,1537731663,1280037,885.15,63,885.15,1020.85,53.36,53.36,53.36,Shache,,,CN,,0.0318,1537663201,1537706749,,,"[{'id': 800, 'main': 'Clear', 'description': 'clear sky', 'icon': '01n'}]",270.004,,6.06
350,stations,8,200,69.7,170.27,1537731663,2122090,1014.6,100,1014.6,1021.7,40.76,40.76,40.76,Pevek,,,RU,,0.0052,1537640630,1537684585,,,"[{'id': 800, 'main': 'Clear', 'description': 'clear sky', 'icon': '02n'}]",111.004,,6.29
351,stations,92,200,52.16,-103.52,1537731663,5990669,964.83,88,964.83,1031.63,37.25,37.25,37.25,Kelvington,,,CA,,0.0032,1537706598,1537750072,,,"[{'id': 804, 'main': 'Clouds', 'description': 'overcast clouds', 'icon': '04d'}]",134.504,,14.9
352,stations,12,200,-11.43,-61.44,1537731664,3925212,989.23,43,989.23,1018.46,92.96,92.96,92.96,Cacoal,,,BR,,0.0034,1537696448,1537740099,,,"[{'id': 801, 'main': 'Clouds', 'description': 'few clouds', 'icon': '02d'}]",289.504,,2.15
353,stations,8,200,-8.83,13.24,1537731664,2240449,1022.78,94,1022.78,1026.24,70.82,70.82,70.82,Luanda,,,AO,,0.0035,1537678539,1537722168,,,"[{'id': 800, 'main': 'Clear', 'description': 'clear sky', 'icon': '02n'}]",243.004,,4.38
354,stations,40,200,27.06,-101.55,1537728000,3987500,,61,1016.0,,80.6,80.6,80.6,San Buenaventura,,,MX,4000.0,0.0035,1537706134,1537749627,1.0,9656.0,"[{'id': 802, 'main': 'Clouds', 'description': 'scattered clouds', 'icon': '03d'}]",40.0,,5.82
355,stations,0,200,15.59,32.54,1537729200,379252,,24,1010.0,,95.0,95.0,95.0,Khartoum,,,SD,6475.0,0.0033,1537673940,1537717485,1.0,10000.0,"[{'id': 800, 'main': 'Clear', 'description': 'clear sky', 'icon': '01n'}]",210.0,,4.7
356,stations,20,200,18.44,-78.17,1537729200,3489657,,70,1010.0,,87.8,87.8,87.8,Lucea,,,JM,4112.0,0.0028,1537700515,1537744035,1.0,10000.0,"[{'id': 801, 'main': 'Clouds', 'description': 'few clouds', 'icon': '02d'}]",50.0,,16.11
357,stations,0,200,12.79,45.03,1537731666,415189,1022.7,100,1022.7,1023.04,84.86,84.86,84.86,Aden,,,YE,,0.0032,1537670941,1537714493,,,"[{'id': 800, 'main': 'Clear', 'description': 'clear sky', 'icon': '01n'}]",66.0035,,7.4
358,stations,90,200,38.35,-81.63,1537728840,4801859,,96,1020.0,,64.94,64.94,64.94,Charleston,2.03,,US,3050.0,0.0035,1537701353,1537744836,1.0,3219.0,"[{'id': 501, 'main': 'Rain', 'description': 'moderate rain', 'icon': '10d'}, {'id': 701, 'main': 'Mist', 'description': 'mist', 'icon': '50d'}, {'id': 741, 'main': 'Fog', 'description': 'fog', 'icon': '50d'}]",50.0,,3.36
359,stations,0,200,36.47,52.35,1537731666,143534,1005.85,100,1005.85,1028.35,66.59,66.59,66.59,Amol,,,IR,,0.0071,1537669180,1537712716,,,"[{'id': 800, 'main': 'Clear', 'description': 'clear sky', 'icon': '01n'}]",268.504,,5.73
360,stations,88,200,51.71,143.23,1537731666,2122783,1025.05,96,1025.05,1027.46,49.49,49.49,49.49,Katangli,,,RU,,0.0034,1537647312,1537690948,,,"[{'id': 804, 'main': 'Clouds', 'description': 'overcast clouds', 'icon': '04n'}]",174.504,,5.73
361,stations,90,200,43.21,-8.69,1537731000,3126369,,100,1027.0,,65.34,66.2,64.4,Carballo,,,ES,5474.0,0.008,1537683831,1537727348,1.0,200.0,"[{'id': 741, 'main': 'Fog', 'description': 'fog', 'icon': '50n'}, {'id': 300, 'main': 'Drizzle', 'description': 'light intensity drizzle', 'icon': '09n'}]",10.0,,5.82
362,stations,40,200,64.46,39.75,1537729200,496285,,100,996.0,,48.2,48.2,48.2,Tabory,,,RU,7263.0,0.0067,1537672101,1537715778,1.0,10000.0,"[{'id': 802, 'main': 'Clouds', 'description': 'scattered clouds', 'icon': '03n'}]",190.0,,6.71
363,stations,75,200,25.53,-103.23,1537728180,3996426,,54,1019.0,,80.6,80.6,80.6,Matamoros,,,MX,4023.0,0.0048,1537706536,1537750033,1.0,16093.0,"[{'id': 803, 'main': 'Clouds', 'description': 'broken clouds', 'icon': '04d'}]",36.0035,,5.84
364,stations,90,200,51.15,-108.75,1537729200,5949601,,100,1014.0,,33.8,33.8,33.8,Eston,,,CA,3913.0,0.0048,1537707856,1537751326,1.0,3219.0,"[{'id': 701, 'main': 'Mist', 'description': 'mist', 'icon': '50d'}]",,,5.82
365,stations,48,200,50.3,26.87,1537731668,693581,998.88,68,998.88,1024.7,53.09,53.09,53.09,Slavuta,,,UA,,0.0032,1537675274,1537718828,,,"[{'id': 802, 'main': 'Clouds', 'description': 'scattered clouds', 'icon': '03n'}]",187.004,,11.32
366,stations,75,200,49.63,-1.64,1537730400,2989755,,66,1028.0,,54.16,55.4,53.6,Octeville,,,FR,5629.0,0.0036,1537682126,1537725659,1.0,10000.0,"[{'id': 803, 'main': 'Clouds', 'description': 'broken clouds', 'icon': '04n'}]",360.0,,14.99
367,stations,32,200,-33.28,149.1,1537731519,2154219,975.29,81,975.29,1041.64,46.97,46.97,46.97,Orange,,,AU,,0.0036,1537645883,1537689651,,,"[{'id': 802, 'main': 'Clouds', 'description': 'scattered clouds', 'icon': '03n'}]",94.0035,,11.1
368,stations,75,200,11.24,-74.21,1537729200,3668605,,63,1007.0,,91.4,91.4,91.4,Santa Marta,,,CO,4277.0,0.0041,1537699556,1537743100,1.0,10000.0,"[{'id': 803, 'main': 'Clouds', 'description': 'broken clouds', 'icon': '04d'}]",55.0035,,17.58
369,stations,24,200,58.61,49.49,1537731669,548408,1001.87,76,1001.87,1020.0,59.84,59.84,59.84,Kostino,,,RU,,0.004,1537669803,1537713423,,,"[{'id': 801, 'main': 'Clouds', 'description': 'few clouds', 'icon': '02n'}]",184.504,,14.12
370,stations,40,200,13.22,-59.52,1537729200,3374083,,66,1011.0,,87.8,87.8,87.8,Bathsheba,,,BB,4160.0,0.0036,1537696033,1537739572,1.0,10000.0,"[{'id': 802, 'main': 'Clouds', 'description': 'scattered clouds', 'icon': '03d'}]",100.0,,11.41
371,stations,76,200,49.17,125.23,1537731670,2035601,995.07,98,995.07,1031.51,42.56,42.56,42.56,Nenjiang,,,CN,,0.0032,1537651647,1537695256,,,"[{'id': 803, 'main': 'Clouds', 'description': 'broken clouds', 'icon': '04n'}]",339.004,,5.95
372,stations,56,200,33.93,134.5,1537731670,1865309,1012.66,94,1012.66,1028.91,65.78,65.78,65.78,Katsuura,,,JP,,0.0039,1537649457,1537693020,,,"[{'id': 803, 'main': 'Clouds', 'description': 'broken clouds', 'icon': '04n'}]",271.004,,2.71
373,stations,0,200,-21.64,-41.05,1537729200,3448903,,57,1013.0,,80.6,80.6,80.6,Sao Joao da Barra,,,BR,4479.0,0.0041,1537691526,1537735246,1.0,10000.0,"[{'id': 800, 'main': 'Clear', 'description': 'clear sky', 'icon': '01d'}]",60.0,,18.34
374,stations,76,200,67.86,20.23,1537730400,605155,,92,979.0,,41.0,41.0,41.0,Kiruna,,,SE,5407.0,0.0031,1537676761,1537720468,1.0,10000.0,"[{'id': 803, 'main': 'Clouds', 'description': 'broken clouds', 'icon': '04n'}]",270.0,,8.05
375,stations,0,200,-34.72,135.86,1537731671,2063036,1041.83,100,1041.83,1045.69,52.19,52.19,52.19,Port Lincoln,,,AU,,0.0033,1537649051,1537692838,,,"[{'id': 800, 'main': 'Clear', 'description': 'clear sky', 'icon': '01n'}]",85.5035,,13.89
376,stations,92,200,5.26,-0.76,1537731671,2297810,1019.62,95,1019.62,1025.83,76.22,76.22,76.22,Mumford,,0.135,GH,,0.0031,1537681922,1537725492,,,"[{'id': 500, 'main': 'Rain', 'description': 'light rain', 'icon': '10n'}]",229.004,,8.75
377,stations,0,200,33.3,44.38,1537729200,98182,,30,1010.0,,82.4,82.4,82.4,Baghdad,,,IQ,7158.0,0.0032,1537671097,1537714628,1.0,10000.0,"[{'id': 800, 'main': 'Clear', 'description': 'clear sky', 'icon': '01n'}]",190.0,,1.12
378,stations,0,200,-35.34,143.56,1537731672,2147756,1036.24,73,1036.24,1045.69,44.9,44.9,44.9,Swan Hill,,,AU,,0.0024,1537647202,1537690993,,,"[{'id': 800, 'main': 'Clear', 'description': 'clear sky', 'icon': '01n'}]",147.004,,12.44
379,stations,24,200,59.06,80.87,1537731673,1504382,1015.33,94,1015.33,1023.36,43.01,43.01,43.01,Kargasok,,,RU,,0.0036,1537662257,1537705909,,,"[{'id': 801, 'main': 'Clouds', 'description': 'few clouds', 'icon': '02n'}]",330.504,,2.37
380,stations,48,200,-4.07,19.59,1537731673,2313084,978.85,92,978.85,1022.75,74.33,74.33,74.33,Mangai,,1.2475,CD,,0.0039,1537677025,1537720631,,,"[{'id': 500, 'main': 'Rain', 'description': 'light rain', 'icon': '10n'}]",22.0035,,2.15
381,stations,92,200,55.25,22.29,1537731673,593959,1010.79,98,1010.79,1016.8,49.58,49.58,49.58,Taurage,,1.9275,LT,,0.0031,1537676357,1537719931,,,"[{'id': 500, 'main': 'Rain', 'description': 'light rain', 'icon': '10n'}]",212.504,,4.5
382,stations,92,200,28.17,94.8,1537731673,1278969,910.03,99,910.03,1023.36,66.95,66.95,66.95,Along,,3.6475,IN,,0.0035,1537658995,1537702540,,,"[{'id': 501, 'main': 'Rain', 'description': 'moderate rain', 'icon': '10n'}]",9.50354,,1.59
383,stations,36,200,-3.52,23.6,1537731674,211647,960.21,92,960.21,1022.27,73.61,73.61,73.61,Lodja,,,CD,,0.0034,1537676064,1537719667,,,"[{'id': 802, 'main': 'Clouds', 'description': 'scattered clouds', 'icon': '03n'}]",353.004,,3.04
384,stations,20,200,26.35,127.87,1537729200,1863495,,85,1010.0,,81.52,82.4,80.06,Gushikawa,,,JP,7625.0,0.0056,1537651057,1537694611,1.0,16093.0,"[{'id': 801, 'main': 'Clouds', 'description': 'few clouds', 'icon': '02n'}]",90.0,,4.7
385,stations,1,200,34.64,-120.46,1537729200,5367788,,67,1013.0,,70.36,77.0,66.92,Lompoc,,,US,410.0,0.0091,1537710678,1537754150,1.0,16093.0,"[{'id': 800, 'main': 'Clear', 'description': 'clear sky', 'icon': '01d'}]",270.0,,9.17
386,stations,12,200,-8.97,33.96,1537731675,154635,867.64,73,867.64,1026.77,60.11,60.11,60.11,Matamba,,,TZ,,0.0029,1537673568,1537717196,,,"[{'id': 801, 'main': 'Clouds', 'description': 'few clouds', 'icon': '02n'}]",112.504,,6.29
387,stations,1,200,32.72,-102.64,1537730100,5530452,,29,1020.0,,79.56,80.6,77.9,Seminole,,,US,2719.0,0.0056,1537706398,1537749880,1.0,11265.0,"[{'id': 800, 'main': 'Clear', 'description': 'clear sky', 'icon': '01d'}]",169.504,,4.72
388,stations,80,200,5.95,80.54,1537731675,1235846,1016.71,100,1016.71,1024.21,77.48,77.48,77.48,Matara,,,LK,,0.0031,1537662413,1537705985,,,"[{'id': 803, 'main': 'Clouds', 'description': 'broken clouds', 'icon': '04n'}]",280.004,,8.75
389,stations,48,200,64.27,100.22,1537731676,2014833,976.34,86,976.34,1026.69,35.72,35.72,35.72,Tura,,,RU,,0.0584,1537657561,1537701300,,,"[{'id': 802, 'main': 'Clouds', 'description': 'scattered clouds', 'icon': '03n'}]",169.004,,2.15
390,stations,92,200,24.19,102.82,1537731676,1787599,833.92,94,833.92,1024.42,58.94,58.94,58.94,Xingyi,,,CN,,0.0028,1537657071,1537700619,,,"[{'id': 804, 'main': 'Clouds', 'description': 'overcast clouds', 'icon': '04n'}]",184.504,,2.48
391,stations,90,200,68.22,-135.01,1537729200,5882953,,96,1008.0,,32.0,32.0,32.0,Aklavik,,,CA,3513.0,0.0047,1537714106,1537757619,1.0,24140.0,"[{'id': 804, 'main': 'Clouds', 'description': 'overcast clouds', 'icon': '04d'}]",340.0,,6.93
392,stations,20,200,29.06,-13.56,1537731000,2510573,,65,1016.0,,78.8,78.8,78.8,Teguise,,,ES,5517.0,0.0036,1537685010,1537728524,1.0,10000.0,"[{'id': 801, 'main': 'Clouds', 'description': 'few clouds', 'icon': '02n'}]",350.0,,24.16
393,stations,24,200,-22.67,167.48,1537731677,2137773,1031.54,100,1031.54,1031.75,68.75,68.75,68.75,Vao,,,NC,,0.0042,1537641510,1537685193,,,"[{'id': 801, 'main': 'Clouds', 'description': 'few clouds', 'icon': '02n'}]",125.504,,11.65
394,stations,0,200,-23.13,150.74,1537729200,2142316,,82,1019.0,,60.8,60.8,60.8,Yeppoon,,,AU,8175.0,0.0031,1537645523,1537689213,1.0,10000.0,"[{'id': 800, 'main': 'Clear', 'description': 'clear sky', 'icon': '01n'}]",130.0,,4.7
395,stations,24,200,2.62,44.89,1537731678,50672,1016.62,89,1016.62,1026.56,74.69,74.69,74.69,Wanlaweyn,,,SO,,0.0046,1537670964,1537714545,,,"[{'id': 801, 'main': 'Clouds', 'description': 'few clouds', 'icon': '02n'}]",194.004,,8.41
396,stations,12,200,-4.2,36.93,1537731678,152042,901.2,90,901.2,1028.87,60.65,60.65,60.65,Naberera,,,TZ,,0.0033,1537672864,1537716470,,,"[{'id': 801, 'main': 'Clouds', 'description': 'few clouds', 'icon': '02n'}]",149.504,,11.21
397,stations,92,200,-38.55,-58.74,1537731544,3430443,1020.27,91,1020.27,1025.96,59.57,59.57,59.57,Necochea,,,AR,,0.0035,1537695685,1537739594,,,"[{'id': 804, 'main': 'Clouds', 'description': 'overcast clouds', 'icon': '04d'}]",266.504,,5.73
398,stations,75,200,45.7,9.21,1537728600,6541630,,64,1014.0,,73.74,75.2,71.6,Giussano,,,IT,5800.0,0.004,1537679528,1537723058,1.0,10000.0,"[{'id': 803, 'main': 'Clouds', 'description': 'broken clouds', 'icon': '04n'}]",240.0,,4.7
399,stations,0,200,53.75,62.07,1537731679,1522348,1009.01,81,1009.01,1034.22,44.0,44.0,44.0,Komsomolets,,,KZ,,0.0037,1537666804,1537710398,,,"[{'id': 800, 'main': 'Clear', 'description': 'clear sky', 'icon': '01n'}]",199.004,,8.41
400,stations,12,200,54.43,31.9,1537731679,525426,999.12,70,999.12,1023.48,50.48,50.48,50.48,Sobolevo,,,RU,,0.0035,1537674051,1537717628,,,"[{'id': 801, 'main': 'Clouds', 'description': 'few clouds', 'icon': '02n'}]",226.004,,10.2
401,stations,75,200,78.22,15.64,1537728600,2729907,,69,980.0,,37.4,37.4,37.4,Longyearbyen,,,SJ,5326.0,0.0046,1537677621,1537721699,1.0,10000.0,"[{'id': 803, 'main': 'Clouds', 'description': 'broken clouds', 'icon': '04n'}]",90.0,,20.8
402,stations,20,200,15.57,108.48,1537729200,1567148,,88,1012.0,,78.8,78.8,78.8,Tam Ky,,,VN,7978.0,0.0032,1537655713,1537699269,1.0,10000.0,"[{'id': 801, 'main': 'Clouds', 'description': 'few clouds', 'icon': '02n'}]",,,1.12
403,stations,44,200,6.7,101.62,1537731680,1606851,1015.41,96,1015.41,1023.52,74.33,74.33,74.33,Sai Buri,,,TH,,0.0031,1537657355,1537700927,,,"[{'id': 802, 'main': 'Clouds', 'description': 'scattered clouds', 'icon': '03n'}]",195.504,,2.48
404,stations,88,200,5.77,73.38,1537731680,1337618,1024.08,100,1024.08,1024.21,82.07,82.07,82.07,Manadhoo,,0.5825,MV,,0.0036,1537664131,1537707703,,,"[{'id': 500, 'main': 'Rain', 'description': 'light rain', 'icon': '10n'}]",277.504,,12.1
405,stations,32,200,-15.5,-67.88,1537731681,3911924,897.79,50,897.79,1018.42,80.72,80.72,80.72,Guanay,,,BO,,0.004,1537697981,1537741660,,,"[{'id': 802, 'main': 'Clouds', 'description': 'scattered clouds', 'icon': '03d'}]",346.004,,2.26
406,stations,8,200,-31.73,-55.98,1537731681,3440034,1004.95,84,1004.95,1021.17,76.49,76.49,76.49,Tacuarembo,,,UY,,0.0034,1537695063,1537738883,,,"[{'id': 800, 'main': 'Clear', 'description': 'clear sky', 'icon': '02d'}]",87.5035,,8.63
407,stations,75,200,2.78,-75.26,1537729200,3670692,,34,1009.0,,93.2,93.2,93.2,Rivera,,,CO,4265.0,0.0167,1537699795,1537743372,1.0,10000.0,"[{'id': 803, 'main': 'Clouds', 'description': 'broken clouds', 'icon': '04d'}]",190.0,,12.75
408,stations,64,200,-40.95,175.66,1537731682,2206890,985.82,84,985.82,1018.54,52.82,52.82,52.82,Masterton,,,NZ,,0.0138,1537639479,1537683319,,,"[{'id': 803, 'main': 'Clouds', 'description': 'broken clouds', 'icon': '04n'}]",287.004,,6.51
409,stations,0,200,-19.93,-60.77,1537731682,3867427,995.31,47,995.31,1015.66,94.31,94.31,94.31,Mayor Pablo Lagerenza,,,PY,,0.0032,1537696261,1537739972,,,"[{'id': 800, 'main': 'Clear', 'description': 'clear sky', 'icon': '01d'}]",358.504,,17.02
410,stations,0,200,35.41,116.58,1537731683,1805518,1030.49,60,1030.49,1034.26,50.03,50.03,50.03,Jining,,,CN,,0.0349,1537653758,1537697317,,,"[{'id': 800, 'main': 'Clear', 'description': 'clear sky', 'icon': '01n'}]",41.5035,,6.51
411,stations,0,200,29.03,69.15,1537731683,1180295,981.37,75,981.37,1020.89,77.3,77.3,77.3,Dera Bugti,,,PK,,0.0032,1537665152,1537708691,,,"[{'id': 800, 'main': 'Clear', 'description': 'clear sky', 'icon': '01n'}]",53.5035,,5.61
412,stations,75,200,50.48,13.36,1537729200,3072890,,93,1004.0,,55.4,55.4,55.4,Krasna Lipa,,,CZ,5893.0,0.0117,1537678520,1537722065,1.0,10000.0,"[{'id': 300, 'main': 'Drizzle', 'description': 'light intensity drizzle', 'icon': '09n'}]",260.0,,16.11
413,stations,75,200,8.22,-76.58,1537729200,7522928,,62,1006.0,,89.6,89.6,89.6,San Andres,,,CO,4259.0,0.0043,1537700121,1537743675,1.0,10000.0,"[{'id': 803, 'main': 'Clouds', 'description': 'broken clouds', 'icon': '04d'}]",270.0,,5.82
414,stations,32,200,-15.07,-57.19,1537731684,3470718,994.42,56,994.42,1019.47,92.42,92.42,92.42,Barra do Bugres,,,BR,,0.0044,1537695418,1537739092,,,"[{'id': 802, 'main': 'Clouds', 'description': 'scattered clouds', 'icon': '03d'}]",359.504,,4.72
415,stations,20,200,-8.76,-67.39,1537731685,3664956,1000.74,40,1000.74,1017.65,95.12,95.12,95.12,Boca do Acre,,,BR,,0.0038,1537697882,1537741517,,,"[{'id': 801, 'main': 'Clouds', 'description': 'few clouds', 'icon': '02d'}]",342.504,,2.71
416,stations,80,200,60.47,7.07,1537731685,3158668,896.01,88,896.01,1025.11,30.32,30.32,30.32,Eidfjord,,,NO,,0.0049,1537679989,1537723588,,,"[{'id': 803, 'main': 'Clouds', 'description': 'broken clouds', 'icon': '04n'}]",289.504,,4.5
417,stations,20,200,20.71,-105.21,1537728360,4004293,,59,1009.0,,89.6,89.6,89.6,Ixtapa,,,MX,4011.0,0.0087,1537707008,1537750516,1.0,24140.0,"[{'id': 801, 'main': 'Clouds', 'description': 'few clouds', 'icon': '02d'}]",230.0,,8.05
418,stations,75,200,32.38,-64.68,1537728900,3573061,,65,1018.0,,82.4,82.4,82.4,Saint George,,,BM,4169.0,0.016,1537697284,1537740779,1.0,10000.0,"[{'id': 803, 'main': 'Clouds', 'description': 'broken clouds', 'icon': '04d'}]",120.0,,16.11
419,stations,75,200,62.91,6.91,1537730400,7626370,,81,1009.0,,44.02,44.6,42.8,Bud,,,NO,5308.0,0.0032,1537680011,1537723634,1.0,10000.0,"[{'id': 520, 'main': 'Rain', 'description': 'light intensity shower rain', 'icon': '09n'}]",270.0,,10.29
420,stations,56,200,6.12,81.12,1537731686,1244926,1021.16,100,1021.16,1023.85,79.28,79.28,79.28,Hambantota,,,LK,,0.003,1537662274,1537705846,,,"[{'id': 803, 'main': 'Clouds', 'description': 'broken clouds', 'icon': '04n'}]",272.004,,11.77
421,stations,76,200,52.83,70.79,1537731687,1518768,991.09,92,991.09,1032.24,46.52,46.52,46.52,Stepnyak,,,KZ,,0.0034,1537664713,1537708307,,,"[{'id': 803, 'main': 'Clouds', 'description': 'broken clouds', 'icon': '04n'}]",301.504,,6.4
422,stations,56,200,-0.09,11.94,1537731687,2401495,994.01,86,994.01,1025.15,76.04,76.04,76.04,Booue,,,GA,,0.0033,1537678867,1537722457,,,"[{'id': 803, 'main': 'Clouds', 'description': 'broken clouds', 'icon': '04n'}]",285.004,,2.93
423,stations,44,200,60.47,166.1,1537731687,2120591,1006.58,94,1006.58,1025.83,40.49,40.49,40.49,Tilichiki,,,RU,,0.0036,1537641758,1537685503,,,"[{'id': 802, 'main': 'Clouds', 'description': 'scattered clouds', 'icon': '03n'}]",249.004,,3.15
424,stations,0,200,-19.16,46.8,1537731688,1056151,880.2,75,880.2,1031.79,50.12,50.12,50.12,Mananjary,,,MG,,0.0032,1537670463,1537714148,,,"[{'id': 800, 'main': 'Clear', 'description': 'clear sky', 'icon': '01n'}]",88.5035,,4.72
